[
  {
    "name": "Antonio Cueva",
    "device": "ClearScan YAG",
    "address": "511 E Ysidro Blvd. Suite 1208, San Ysidro, CA, 92173",
    "doctors": "",
    "phones": "",
    "emails": "",
    "websites": "",
    "lat": 32.550116,
    "lng": -117.0361,
    "source": "sciton"
  },
  {
    "name": "Antonio Cueva",
    "device": "Contour TRL",
    "address": "511 E Ysidro Blvd. Suite 1208, San Ysidro, CA, 92173",
    "doctors": "",
    "phones": "",
    "emails": "",
    "websites": "",
    "lat": 32.550116,
    "lng": -117.0361,
    "source": "sciton"
  },
  {
    "name": "Maria T Villa MD",
    "device": "Kybella",
    "address": "655 SATURN BLVD STE J , SAN DIEGO, CA 92154",
    "doctors": "",
    "phones": "",
    "emails": "",
    "websites": "",
    "lat": 32.584749,
    "lng": -117.091064,
    "source": "mykybella"
  },
  {
    "name": "Maria Villa, MD",
    "device": "Icon",
    "address": "655 Saturn Blvd, Suite J, San Diego, CA, 92154",
    "doctors": "Maria Villa, Dr.",
    "phones": "619-350-3190",
    "emails": "",
    "websites": "",
    "lat": 32.584749,
    "lng": -117.091064,
    "source": "cynosure"
  },
  {
    "name": "Maria Villa, MD",
    "device": "PelleFirm",
    "address": "655 Saturn Blvd, Suite J, San Diego, CA, 92154",
    "doctors": "Maria Villa, Dr.",
    "phones": "619-350-3190",
    "emails": "",
    "websites": "",
    "lat": 32.584749,
    "lng": -117.091064,
    "source": "cynosure"
  },
  {
    "name": "Maria Villa, MD",
    "device": "Pelleve",
    "address": "655 Saturn Blvd, Suite J, San Diego, CA, 92154",
    "doctors": "Maria Villa, Dr.",
    "phones": "619-350-3190",
    "emails": "",
    "websites": "",
    "lat": 32.584749,
    "lng": -117.091064,
    "source": "cynosure"
  },
  {
    "name": "Maria Villa, MD",
    "device": "SculpSure",
    "address": "655 Saturn Blvd, Suite J, San Diego, CA, 92154",
    "doctors": "Maria Villa, Dr.",
    "phones": "619-350-3190",
    "emails": "",
    "websites": "",
    "lat": 32.584749,
    "lng": -117.091064,
    "source": "cynosure"
  },
  {
    "name": "Lifetime Women's Healthcare",
    "device": "MonaLisa Touch",
    "address": "752 Medical Center Ct, #106, Chula Vista, CA, 91911",
    "doctors": "Schubert Atiga, MD",
    "phones": "(619) 482-8406",
    "emails": "",
    "websites": "",
    "lat": 32.617152,
    "lng": -117.023916,
    "source": "cynosure"
  },
  {
    "name": "Dr. Atiga",
    "device": "Excel V",
    "address": "752 Medical Center Ct, Chula Vista, CA 91911 - USA",
    "doctors": "",
    "phones": "(619) 482-8406",
    "emails": "",
    "websites": "",
    "lat": 32.617152,
    "lng": -117.023916,
    "source": "cutera"
  },
  {
    "name": "Dr. Atiga",
    "device": "truSculpt",
    "address": "752 Medical Center Ct, Chula Vista, CA 91911 - USA",
    "doctors": "",
    "phones": "(619) 482-8406",
    "emails": "",
    "websites": "",
    "lat": 32.617152,
    "lng": -117.023916,
    "source": "cutera"
  },
  {
    "name": "South Bay Spa Md",
    "device": "TriActive",
    "address": "Dr. Howard Steinman, 754 Medical Center Ct #204, Chula Vista, CA, 91911",
    "doctors": "Howard Steinman, MD",
    "phones": "(619) 425-2300",
    "emails": "",
    "websites": "",
    "lat": 32.617404,
    "lng": -117.02318,
    "source": "cynosure"
  },
  {
    "name": "Liza Marroquin, M.D.",
    "device": "BBL",
    "address": "750 Medical Center Court, Chula Vista, CA, 91911",
    "doctors": "",
    "phones": "",
    "emails": "",
    "websites": "www.smartlivingmd.com",
    "lat": 32.617949,
    "lng": -117.024008,
    "source": "sciton"
  },
  {
    "name": "Liza Marroquin, M.D.",
    "device": "ClearScan YAG",
    "address": "750 Medical Center Court, Chula Vista, CA, 91911",
    "doctors": "",
    "phones": "",
    "emails": "",
    "websites": "www.smartlivingmd.com",
    "lat": 32.617949,
    "lng": -117.024008,
    "source": "sciton"
  },
  {
    "name": "Liza Marroquin, M.D.",
    "device": "ProFractional",
    "address": "750 Medical Center Court, Chula Vista, CA, 91911",
    "doctors": "",
    "phones": "",
    "emails": "",
    "websites": "www.smartlivingmd.com",
    "lat": 32.617949,
    "lng": -117.024008,
    "source": "sciton"
  },
  {
    "name": "Liza Marroquin, M.D.",
    "device": "ProFractional-XC",
    "address": "750 Medical Center Court, Chula Vista, CA, 91911",
    "doctors": "",
    "phones": "",
    "emails": "",
    "websites": "www.smartlivingmd.com",
    "lat": 32.617949,
    "lng": -117.024008,
    "source": "sciton"
  },
  {
    "name": "Liza Marroquin, M.D.",
    "device": "SkinTyte",
    "address": "750 Medical Center Court, Chula Vista, CA, 91911",
    "doctors": "",
    "phones": "",
    "emails": "",
    "websites": "www.smartlivingmd.com",
    "lat": 32.617949,
    "lng": -117.024008,
    "source": "sciton"
  },
  {
    "name": "Francisco E. Anguiano, MD INC",
    "device": "MonaLisa Touch",
    "address": "765 Medical Center Court, Suite 209, Chula Vista, CA, 91911",
    "doctors": "Francisco E Anguiano, MD; Christina Buenrostro, NP",
    "phones": "(619) 427-8892",
    "emails": "",
    "websites": "",
    "lat": 32.619021,
    "lng": -117.020789,
    "source": "cynosure"
  },
  {
    "name": "Francisco E. Anguiano, MD INC",
    "device": "Pelleve",
    "address": "765 Medical Center Court, Suite 209, Chula Vista, CA, 91911",
    "doctors": "Francisco E Anguiano, MD; Christina Buenrostro, NP",
    "phones": "(619) 427-8892",
    "emails": "",
    "websites": "",
    "lat": 32.619021,
    "lng": -117.020789,
    "source": "cynosure"
  },
  {
    "name": "Francisco E. Anguiano, MD INC",
    "device": "SculpSure",
    "address": "765 Medical Center Court, Suite 209, Chula Vista, CA, 91911",
    "doctors": "Francisco E Anguiano, MD; Christina Buenrostro, NP",
    "phones": "(619) 427-8892",
    "emails": "",
    "websites": "",
    "lat": 32.619021,
    "lng": -117.020789,
    "source": "cynosure"
  },
  {
    "name": "San Diego Vein Specialists",
    "device": "Excel V",
    "address": "765 Medical Center Court, Suite 211, Chula Vista, CA 91911 - USA",
    "doctors": "",
    "phones": "(619) 616-2100",
    "emails": "",
    "websites": "",
    "lat": 32.619021,
    "lng": -117.020789,
    "source": "cutera"
  },
  {
    "name": "Kamali Aesthetics",
    "device": "Smartlipo TriPlex",
    "address": "769 Medical Center Court, Ste. 301, Chula Vista, CA, 91911",
    "doctors": "Ray P. Kamali, MD",
    "phones": "(619) 271-2700",
    "emails": "",
    "websites": "",
    "lat": 32.61914,
    "lng": -117.0201,
    "source": "cynosure"
  },
  {
    "name": "Dermacare Laser & Skin Care Clinic of Chula Vista",
    "device": "Smartlipo",
    "address": "865 3rd Avenue, Suite 105, Chula Vista, CA, 91911",
    "doctors": "Talal Al-Quraini",
    "phones": "619-420-0600",
    "emails": "",
    "websites": "",
    "lat": 32.622044,
    "lng": -117.071777,
    "source": "cynosure"
  },
  {
    "name": "Cosmed",
    "device": "Fraxel 1550",
    "address": "2 Admiralty Cross, Coronado, CA, 92118",
    "doctors": "Alejandro Quiroz MD",
    "phones": "619-428-4803",
    "emails": "",
    "websites": "",
    "lat": 32.626283,
    "lng": -117.13523,
    "source": "soltamedical"
  },
  {
    "name": "Grimaldi Center for Wellness and Aesthetics",
    "device": "Icon",
    "address": "450 4th Avenue, Suite 312, Chula Vista, CA, 91910",
    "doctors": "John A Grimaldi, D.O.",
    "phones": "(619) 755-5285",
    "emails": "",
    "websites": "",
    "lat": 32.634904,
    "lng": -117.082764,
    "source": "cynosure"
  },
  {
    "name": "Grimaldi Center for Wellness and Aesthetics",
    "device": "MonaLisa Touch",
    "address": "450 4th Avenue, Suite 312, Chula Vista, CA, 91910",
    "doctors": "John A Grimaldi, D.O.",
    "phones": "(619) 755-5285",
    "emails": "",
    "websites": "",
    "lat": 32.634904,
    "lng": -117.082764,
    "source": "cynosure"
  },
  {
    "name": "Grimaldi Center for Wellness and Aesthetics",
    "device": "PelleFirm",
    "address": "450 4th Avenue, Suite 312, Chula Vista, CA, 91910",
    "doctors": "John A Grimaldi, D.O.",
    "phones": "(619) 755-5285",
    "emails": "",
    "websites": "",
    "lat": 32.634904,
    "lng": -117.082764,
    "source": "cynosure"
  },
  {
    "name": "Grimaldi Center for Wellness and Aesthetics",
    "device": "Pelleve",
    "address": "450 4th Avenue, Suite 312, Chula Vista, CA, 91910",
    "doctors": "John A Grimaldi, D.O.",
    "phones": "(619) 755-5285",
    "emails": "",
    "websites": "",
    "lat": 32.634904,
    "lng": -117.082764,
    "source": "cynosure"
  },
  {
    "name": "Grimaldi Center for Wellness and Aesthetics",
    "device": "SculpSure",
    "address": "450 4th Avenue, Suite 312, Chula Vista, CA, 91910",
    "doctors": "John A Grimaldi, D.O.",
    "phones": "(619) 755-5285",
    "emails": "",
    "websites": "",
    "lat": 32.634904,
    "lng": -117.082764,
    "source": "cynosure"
  },
  {
    "name": "Dermatology And Laser Cntr Of San D",
    "device": "Kybella",
    "address": "319 F ST #102 , CHULA VISTA, CA 91910",
    "doctors": "",
    "phones": "",
    "emails": "",
    "websites": "http://www.dermlasercenter.com/",
    "lat": 32.64132,
    "lng": -117.080833,
    "source": "mykybella"
  },
  {
    "name": "Dermatology & Laser Center of San Diego",
    "device": "Icon",
    "address": "319 F St, Suite 102, Chula Vista, CA, 91910",
    "doctors": "Mark A Willoughby, MD; Erick A Mafong, MD; Amy Han, MD; Cole B Willoughby, MD; Amy C Ellsworth, PA-C; Erica Ventrella, PA-C",
    "phones": "(619)76-1200",
    "emails": "",
    "websites": "",
    "lat": 32.64132,
    "lng": -117.080833,
    "source": "cynosure"
  },
  {
    "name": "Dermatology & Laser Center of San Diego",
    "device": "MedLite C6",
    "address": "319 F St, Suite 102, Chula Vista, CA, 91910",
    "doctors": "Mark A Willoughby, MD; Erick A Mafong, MD; Amy Han, MD; Cole B Willoughby, MD; Amy C Ellsworth, PA-C; Erica Ventrella, PA-C",
    "phones": "(619)76-1200",
    "emails": "",
    "websites": "",
    "lat": 32.64132,
    "lng": -117.080833,
    "source": "cynosure"
  },
  {
    "name": "Dermatology & Laser Center of San Diego",
    "device": "Vectus",
    "address": "319 F St, Suite 102, Chula Vista, CA, 91910",
    "doctors": "Mark A Willoughby, MD; Erick A Mafong, MD; Amy Han, MD; Cole B Willoughby, MD; Amy C Ellsworth, PA-C; Erica Ventrella, PA-C",
    "phones": "(619)76-1200",
    "emails": "",
    "websites": "",
    "lat": 32.64132,
    "lng": -117.080833,
    "source": "cynosure"
  },
  {
    "name": "Renato De La Rosa, MD",
    "device": "BBL",
    "address": "2060 Otay Lakes Rd Ste 220, Chula Vista, CA, 91915",
    "doctors": "",
    "phones": "",
    "emails": "",
    "websites": "",
    "lat": 32.644345,
    "lng": -116.973376,
    "source": "sciton"
  },
  {
    "name": "Renato De La Rosa, MD",
    "device": "ClearScan YAG",
    "address": "2060 Otay Lakes Rd Ste 220, Chula Vista, CA, 91915",
    "doctors": "",
    "phones": "",
    "emails": "",
    "websites": "",
    "lat": 32.644345,
    "lng": -116.973376,
    "source": "sciton"
  },
  {
    "name": "Renato De La Rosa, MD",
    "device": "Contour TRL",
    "address": "2060 Otay Lakes Rd Ste 220, Chula Vista, CA, 91915",
    "doctors": "",
    "phones": "",
    "emails": "",
    "websites": "",
    "lat": 32.644345,
    "lng": -116.973376,
    "source": "sciton"
  },
  {
    "name": "Renato De La Rosa, MD",
    "device": "ThermaScan",
    "address": "2060 Otay Lakes Rd Ste 220, Chula Vista, CA, 91915",
    "doctors": "",
    "phones": "",
    "emails": "",
    "websites": "",
    "lat": 32.644345,
    "lng": -116.973376,
    "source": "sciton"
  },
  {
    "name": "Spirit Lift Chula Vista",
    "device": "BBL",
    "address": "2240 Otay Lakes Road #302, Chula Vista, CA, 91915",
    "doctors": "",
    "phones": "",
    "emails": "",
    "websites": "http://www.spiritliftplasticsurgery.com/about/",
    "lat": 32.645713,
    "lng": -116.967113,
    "source": "sciton"
  },
  {
    "name": "Spirit Lift Chula Vista",
    "device": "ClearScan ALX",
    "address": "2240 Otay Lakes Road #302, Chula Vista, CA, 91915",
    "doctors": "",
    "phones": "",
    "emails": "",
    "websites": "http://www.spiritliftplasticsurgery.com/about/",
    "lat": 32.645713,
    "lng": -116.967113,
    "source": "sciton"
  },
  {
    "name": "Spirit Lift Chula Vista",
    "device": "ClearScan YAG",
    "address": "2240 Otay Lakes Road #302, Chula Vista, CA, 91915",
    "doctors": "",
    "phones": "",
    "emails": "",
    "websites": "http://www.spiritliftplasticsurgery.com/about/",
    "lat": 32.645713,
    "lng": -116.967113,
    "source": "sciton"
  },
  {
    "name": "Spirit Lift Chula Vista",
    "device": "ClearSense",
    "address": "2240 Otay Lakes Road #302, Chula Vista, CA, 91915",
    "doctors": "",
    "phones": "",
    "emails": "",
    "websites": "http://www.spiritliftplasticsurgery.com/about/",
    "lat": 32.645713,
    "lng": -116.967113,
    "source": "sciton"
  },
  {
    "name": "Spirit Lift Chula Vista",
    "device": "Contour TRL",
    "address": "2240 Otay Lakes Road #302, Chula Vista, CA, 91915",
    "doctors": "",
    "phones": "",
    "emails": "",
    "websites": "http://www.spiritliftplasticsurgery.com/about/",
    "lat": 32.645713,
    "lng": -116.967113,
    "source": "sciton"
  },
  {
    "name": "Spirit Lift Chula Vista",
    "device": "Pro-V",
    "address": "2240 Otay Lakes Road #302, Chula Vista, CA, 91915",
    "doctors": "",
    "phones": "",
    "emails": "",
    "websites": "http://www.spiritliftplasticsurgery.com/about/",
    "lat": 32.645713,
    "lng": -116.967113,
    "source": "sciton"
  },
  {
    "name": "Spirit Lift Chula Vista",
    "device": "ProFractional",
    "address": "2240 Otay Lakes Road #302, Chula Vista, CA, 91915",
    "doctors": "",
    "phones": "",
    "emails": "",
    "websites": "http://www.spiritliftplasticsurgery.com/about/",
    "lat": 32.645713,
    "lng": -116.967113,
    "source": "sciton"
  },
  {
    "name": "Spirit Lift Chula Vista",
    "device": "ProFractional-XC",
    "address": "2240 Otay Lakes Road #302, Chula Vista, CA, 91915",
    "doctors": "",
    "phones": "",
    "emails": "",
    "websites": "http://www.spiritliftplasticsurgery.com/about/",
    "lat": 32.645713,
    "lng": -116.967113,
    "source": "sciton"
  },
  {
    "name": "Spirit Lift Chula Vista",
    "device": "ProLipo PLUS",
    "address": "2240 Otay Lakes Road #302, Chula Vista, CA, 91915",
    "doctors": "",
    "phones": "",
    "emails": "",
    "websites": "http://www.spiritliftplasticsurgery.com/about/",
    "lat": 32.645713,
    "lng": -116.967113,
    "source": "sciton"
  },
  {
    "name": "Spirit Lift Chula Vista",
    "device": "SkinTyte",
    "address": "2240 Otay Lakes Road #302, Chula Vista, CA, 91915",
    "doctors": "",
    "phones": "",
    "emails": "",
    "websites": "http://www.spiritliftplasticsurgery.com/about/",
    "lat": 32.645713,
    "lng": -116.967113,
    "source": "sciton"
  },
  {
    "name": "Spirit Lift Chula Vista",
    "device": "ThermaScan",
    "address": "2240 Otay Lakes Road #302, Chula Vista, CA, 91915",
    "doctors": "",
    "phones": "",
    "emails": "",
    "websites": "http://www.spiritliftplasticsurgery.com/about/",
    "lat": 32.645713,
    "lng": -116.967113,
    "source": "sciton"
  },
  {
    "name": "One Medical Spa &#038; Salon Inc",
    "device": "Quanta Aestetic Lasers",
    "address": "884 Eastlake Parkway Suite 1621, Chula Vista, CA, 91914",
    "doctors": "",
    "phones": 6196330772,
    "emails": "",
    "websites": "http://onesalonsandiego.com/",
    "lat": 32.651215,
    "lng": -116.96908,
    "source": "quantausa"
  },
  {
    "name": "One Medical Spa & Salon",
    "device": "CoolSculpting",
    "address": "884 Eastlake Pkwy #1621, Chula Vista, CA, 91914",
    "doctors": "DR. Cherif Girgis",
    "phones": "1(619) 633-0772",
    "emails": "1medspasalon@gmail.com",
    "websites": "http://www.onemedicalspa.com",
    "lat": 32.651215,
    "lng": -116.96908,
    "source": "coolsculpting"
  },
  {
    "name": "Nowak Aesthetics",
    "device": "Fraxel 1550",
    "address": "2440 Fenton St Ste 101, Chula Vista, CA, 91914",
    "doctors": "Eugene J Nowak, DO",
    "phones": "619-420-1840",
    "emails": "",
    "websites": "http://www.drnowak.com",
    "lat": 32.651601,
    "lng": -116.956313,
    "source": "soltamedical"
  },
  {
    "name": "Nowak Aesthetics",
    "device": "PiQo4",
    "address": "2440 Fenton St Ste 101, Chula Vista, CA, 91914",
    "doctors": "Dr. Eugene J. Nowak",
    "phones": "619-651-9651",
    "emails": "",
    "websites": "https://drnowak.com/",
    "lat": 32.651601,
    "lng": -116.956313,
    "source": "lumenis"
  },
  {
    "name": "Nowak Aesthetics",
    "device": "Thermage CPT",
    "address": "2440 Fenton St Ste 101, Chula Vista, CA, 91914",
    "doctors": "Eugene J Nowak, DO",
    "phones": "619-420-1840",
    "emails": "",
    "websites": "http://www.drnowak.com",
    "lat": 32.651601,
    "lng": -116.956313,
    "source": "soltamedical"
  },
  {
    "name": "Nowak Aesthetics",
    "device": "Thermage NXT",
    "address": "2440 Fenton St Ste 101, Chula Vista, CA, 91914",
    "doctors": "Eugene J Nowak, DO",
    "phones": "619-420-1840",
    "emails": "",
    "websites": "http://www.drnowak.com",
    "lat": 32.651601,
    "lng": -116.956313,
    "source": "soltamedical"
  },
  {
    "name": "Nowak Aesthetics",
    "device": "Describe",
    "address": "2440 Fenton St Ste 101,Chula Vista, ca, 91914",
    "doctors": "Ronald Colunga, PA, Eugene Nowak, DO,",
    "phones": "619-420-1840",
    "emails": "",
    "websites": "",
    "lat": 32.651601,
    "lng": -116.956313,
    "source": "ultherapy"
  },
  {
    "name": "Nowak Aesthetics",
    "device": "Neocutis",
    "address": "2440 Fenton St Ste 101,Chula Vista, ca, 91914",
    "doctors": "Ronald Colunga, PA, Eugene Nowak, DO,",
    "phones": "619-420-1840",
    "emails": "",
    "websites": "",
    "lat": 32.651601,
    "lng": -116.956313,
    "source": "ultherapy"
  },
  {
    "name": "Nowak Aesthetics",
    "device": "Ultherapy",
    "address": "2440 Fenton St Ste 101,Chula Vista, ca, 91914",
    "doctors": "Ronald Colunga, PA, Eugene Nowak, DO,",
    "phones": "619-420-1840",
    "emails": "",
    "websites": "",
    "lat": 32.651601,
    "lng": -116.956313,
    "source": "ultherapy"
  },
  {
    "name": "Nowak Aesthetics",
    "device": "Xeo",
    "address": "2440 Fenton St Suite 101, Chula Vista, CA 91914 - USA",
    "doctors": "",
    "phones": "(619) 420-1840",
    "emails": "",
    "websites": "http://drnowak.com/",
    "lat": 32.651601,
    "lng": -116.956313,
    "source": "cutera"
  },
  {
    "name": "Nowak Aesthetics",
    "device": "CoolSculpting",
    "address": "2440 Fenton St, Ste 101, Chula Vista, CA, 91914",
    "doctors": "Eugene J. Nowak, DO",
    "phones": "1619-420-1840",
    "emails": "subscriber@drnowak.com",
    "websites": "http://mydoctoraesthetics.com/coolsculpting/",
    "lat": 32.651601,
    "lng": -116.956313,
    "source": "coolsculpting"
  },
  {
    "name": "M Beauty Clinic by Dr. Tess",
    "device": "Venus Freeze",
    "address": "875 Bowsprit Road, Chula Vista CA 91914, United States",
    "doctors": "",
    "phones": 6194348950,
    "emails": "",
    "websites": "http://www.mbeautyclinic.com/",
    "lat": 32.654733,
    "lng": -116.958921,
    "source": "venustreatment"
  },
  {
    "name": "M Beauty Clinic by Dr. Tess",
    "device": "Venus Legacy",
    "address": "875 Bowsprit Road, Chula Vista CA 91914, United States",
    "doctors": "",
    "phones": 6194348950,
    "emails": "",
    "websites": "http://www.mbeautyclinic.com/",
    "lat": 32.654733,
    "lng": -116.958921,
    "source": "venustreatment"
  },
  {
    "name": "Caring Hearts Medical Clinic",
    "device": "BBL",
    "address": "2401 Reo Drive, San Diego, CA, 92139",
    "doctors": "",
    "phones": "",
    "emails": "",
    "websites": "http://www.caringheartsmedicalfoundation.org",
    "lat": 32.675325,
    "lng": -117.063916,
    "source": "sciton"
  },
  {
    "name": "Caring Hearts Medical Clinic",
    "device": "ClearScan YAG",
    "address": "2401 Reo Drive, San Diego, CA, 92139",
    "doctors": "",
    "phones": "",
    "emails": "",
    "websites": "http://www.caringheartsmedicalfoundation.org",
    "lat": 32.675325,
    "lng": -117.063916,
    "source": "sciton"
  },
  {
    "name": "Caring Hearts Medical Clinic",
    "device": "Contour TRL",
    "address": "2401 Reo Drive, San Diego, CA, 92139",
    "doctors": "",
    "phones": "",
    "emails": "",
    "websites": "http://www.caringheartsmedicalfoundation.org",
    "lat": 32.675325,
    "lng": -117.063916,
    "source": "sciton"
  },
  {
    "name": "Caring Hearts Medical Clinic",
    "device": "ProFractional",
    "address": "2401 Reo Drive, San Diego, CA, 92139",
    "doctors": "",
    "phones": "",
    "emails": "",
    "websites": "http://www.caringheartsmedicalfoundation.org",
    "lat": 32.675325,
    "lng": -117.063916,
    "source": "sciton"
  },
  {
    "name": "Caring Hearts Medical Clinic",
    "device": "SkinTyte",
    "address": "2401 Reo Drive, San Diego, CA, 92139",
    "doctors": "",
    "phones": "",
    "emails": "",
    "websites": "http://www.caringheartsmedicalfoundation.org",
    "lat": 32.675325,
    "lng": -117.063916,
    "source": "sciton"
  },
  {
    "name": "Dr. Trimor-Tamoria Medical Clinic",
    "device": "Icon",
    "address": "2240 E Plaza Blvd, Suite A, National City, CA, 91950",
    "doctors": "Maria Flora G Trimor-Tamoria, MD",
    "phones": "(619) 267-5884",
    "emails": "",
    "websites": "",
    "lat": 32.678416,
    "lng": -117.081569,
    "source": "cynosure"
  },
  {
    "name": "Dr. Trimor-Tamoria Medical Clinic",
    "device": "PelleFirm",
    "address": "2240 E Plaza Blvd, Suite A, National City, CA, 91950",
    "doctors": "Maria Flora G Trimor-Tamoria, MD",
    "phones": "(619) 267-5884",
    "emails": "",
    "websites": "",
    "lat": 32.678416,
    "lng": -117.081569,
    "source": "cynosure"
  },
  {
    "name": "Dr. Trimor-Tamoria Medical Clinic",
    "device": "Pelleve",
    "address": "2240 E Plaza Blvd, Suite A, National City, CA, 91950",
    "doctors": "Maria Flora G Trimor-Tamoria, MD",
    "phones": "(619) 267-5884",
    "emails": "",
    "websites": "",
    "lat": 32.678416,
    "lng": -117.081569,
    "source": "cynosure"
  },
  {
    "name": "Dr. Trimor-Tamoria Medical Clinic",
    "device": "PicoSure",
    "address": "2240 E Plaza Blvd, Suite A, National City, CA, 91950",
    "doctors": "Maria Flora G Trimor-Tamoria, MD",
    "phones": "(619) 267-5884",
    "emails": "",
    "websites": "",
    "lat": 32.678416,
    "lng": -117.081569,
    "source": "cynosure"
  },
  {
    "name": "New Image Cosmetic Surgery",
    "device": "Smartlipo",
    "address": "230 Prospect Place, Ste # 350, Coronado, CA, 92118",
    "doctors": "Jeffry B. Schaefer, M.D.",
    "phones": "(619) 437-1388",
    "emails": "",
    "websites": "",
    "lat": 32.694812,
    "lng": -117.167972,
    "source": "cynosure"
  },
  {
    "name": "Remedi Plastic Surgery",
    "device": "Venus Freeze",
    "address": "230 Prospect Place, Suite 310, Coronado CA 92118, United States",
    "doctors": "",
    "phones": "(619) 437-1388",
    "emails": "",
    "websites": "http://www.coronadocosmeticsurgerycenter.com/",
    "lat": 32.694812,
    "lng": -117.167972,
    "source": "venustreatment"
  },
  {
    "name": "Coronado Cosmetic Surgery Center",
    "device": "Icon",
    "address": "230 Prospect Place, Suite 310, Coronado, CA, 92118",
    "doctors": "Rakhesh G Guttikonda, DO; Daniel G Brown, MD",
    "phones": "619.437.1388",
    "emails": "",
    "websites": "",
    "lat": 32.694812,
    "lng": -117.167972,
    "source": "cynosure"
  },
  {
    "name": "Coronado Cosmetic Surgery Center",
    "device": "Smartlipo MPX",
    "address": "230 Prospect Place, Suite 310, Coronado, CA, 92118",
    "doctors": "Rakhesh G Guttikonda, DO; Daniel G Brown, MD",
    "phones": "619.437.1388",
    "emails": "",
    "websites": "",
    "lat": 32.694812,
    "lng": -117.167972,
    "source": "cynosure"
  },
  {
    "name": "Coronado Cosmetic Surgery Center",
    "device": "TriActive",
    "address": "230 Prospect Place, Suite 310, Coronado, CA, 92118",
    "doctors": "Rakhesh G Guttikonda, DO; Daniel G Brown, MD",
    "phones": "619.437.1388",
    "emails": "",
    "websites": "",
    "lat": 32.694812,
    "lng": -117.167972,
    "source": "cynosure"
  },
  {
    "name": "John Pedrotty MD",
    "device": "M22",
    "address": "1222 First St., Suite 1, Coronado, CA, 92118",
    "doctors": "John Pedrotty MD",
    "phones": 6194357100,
    "emails": "jpedrotty@jpedrottymd.com",
    "websites": "www.johnpedrottymd.com",
    "lat": 32.697809,
    "lng": -117.17105,
    "source": "lumenis"
  },
  {
    "name": "John Pedrotty MD",
    "device": "ResurFX",
    "address": "1222 First St., Suite 1, Coronado, CA, 92118",
    "doctors": "John Pedrotty MD",
    "phones": 6194357100,
    "emails": "jpedrotty@jpedrottymd.com",
    "websites": "www.johnpedrottymd.com",
    "lat": 32.697809,
    "lng": -117.17105,
    "source": "lumenis"
  },
  {
    "name": "Suki Day Spa",
    "device": "CoolSculpting",
    "address": "541 4th Ave, Ste A, San Diego, CA, 92101",
    "doctors": "Dr. Raymond Chan",
    "phones": "1 (619) 338-8088",
    "emails": "info@sukidayspa.com",
    "websites": "http://www.sukidayspa.com",
    "lat": 32.710982,
    "lng": -117.160778,
    "source": "coolsculpting"
  },
  {
    "name": "Sente Bella Med Spa",
    "device": "LightSheer DUET",
    "address": "220 West G Street, San Diego, CA, 92101",
    "doctors": "Allison Soltysiak",
    "phones": "(619)-235-6865",
    "emails": "spa-director@sentebellaspa.com",
    "websites": "www.sentebella.com",
    "lat": 32.7127,
    "lng": -117.16513,
    "source": "lumenis"
  },
  {
    "name": "Richard Chaffoo, MD",
    "device": "CoolSculpting",
    "address": "600 West Broadway, Suite 700, San Diego, CA, 92101",
    "doctors": "Richard Chaffoo, MD; Susan Stuart, MD",
    "phones": "1(858) 623-6333",
    "emails": "brittney@lajollaskin.com",
    "websites": "https://www.lajollaskin.com/cosmetic-surgery/body/coolsculpting/",
    "lat": 32.716493,
    "lng": -117.168661,
    "source": "coolsculpting"
  },
  {
    "name": "Clinique Sculpture",
    "device": "Smartlipo",
    "address": "600 West Broadway, Ste 700, San Diego, CA, 92101",
    "doctors": "William J Seare, MD",
    "phones": "619-988-4354",
    "emails": "",
    "websites": "",
    "lat": 32.716493,
    "lng": -117.168661,
    "source": "cynosure"
  },
  {
    "name": "Clinique Sculpture",
    "device": "Smartlipo TriPlex",
    "address": "600 West Broadway, Ste 700, San Diego, CA, 92101",
    "doctors": "William J Seare, MD",
    "phones": "619-988-4354",
    "emails": "",
    "websites": "",
    "lat": 32.716493,
    "lng": -117.168661,
    "source": "cynosure"
  },
  {
    "name": "US Navy - San Diego",
    "device": "BBL",
    "address": "34520 Bob Wilson Dr., San Diego, CA, 92134",
    "doctors": "",
    "phones": "",
    "emails": "",
    "websites": "",
    "lat": 32.724542,
    "lng": -117.144223,
    "source": "sciton"
  },
  {
    "name": "US Navy - San Diego",
    "device": "ClearScan ALX",
    "address": "34520 Bob Wilson Dr., San Diego, CA, 92134",
    "doctors": "",
    "phones": "",
    "emails": "",
    "websites": "",
    "lat": 32.724542,
    "lng": -117.144223,
    "source": "sciton"
  },
  {
    "name": "US Navy - San Diego",
    "device": "Contour TRL",
    "address": "34520 Bob Wilson Dr., San Diego, CA, 92134",
    "doctors": "",
    "phones": "",
    "emails": "",
    "websites": "",
    "lat": 32.724542,
    "lng": -117.144223,
    "source": "sciton"
  },
  {
    "name": "US Navy - San Diego",
    "device": "Pro-V",
    "address": "34520 Bob Wilson Dr., San Diego, CA, 92134",
    "doctors": "",
    "phones": "",
    "emails": "",
    "websites": "",
    "lat": 32.724542,
    "lng": -117.144223,
    "source": "sciton"
  },
  {
    "name": "US Navy - San Diego",
    "device": "ProFractional",
    "address": "34520 Bob Wilson Dr., San Diego, CA, 92134",
    "doctors": "",
    "phones": "",
    "emails": "",
    "websites": "",
    "lat": 32.724542,
    "lng": -117.144223,
    "source": "sciton"
  },
  {
    "name": "US Navy - San Diego",
    "device": "ProFractional-XC",
    "address": "34520 Bob Wilson Dr., San Diego, CA, 92134",
    "doctors": "",
    "phones": "",
    "emails": "",
    "websites": "",
    "lat": 32.724542,
    "lng": -117.144223,
    "source": "sciton"
  },
  {
    "name": "Siti Medical Clinic",
    "device": "JuVaShape",
    "address": "1951 4th Ave #101 San Diego CA 92101 United States",
    "doctors": "",
    "phones": "619-717-8484",
    "emails": "",
    "websites": "",
    "lat": 32.725638,
    "lng": -117.160872,
    "source": "almalasers"
  },
  {
    "name": "Siti Medical Clinic",
    "device": "Enlighten",
    "address": "1951 4th Avenue, San Diego, CA 92101 - USA",
    "doctors": "",
    "phones": "(619) 717-8484",
    "emails": "",
    "websites": "http://sitimedspa.com/",
    "lat": 32.725638,
    "lng": -117.160872,
    "source": "cutera"
  },
  {
    "name": "Siti Medical Clinic",
    "device": "Xeo",
    "address": "1951 4th Avenue, San Diego, CA 92101 - USA",
    "doctors": "",
    "phones": "(619) 717-8484",
    "emails": "",
    "websites": "http://sitimedspa.com/",
    "lat": 32.725638,
    "lng": -117.160872,
    "source": "cutera"
  },
  {
    "name": "Complexions RX",
    "device": "Kybella",
    "address": "1940 5TH AVE #200 , SAN DIEGO, CA 92101",
    "doctors": "",
    "phones": "",
    "emails": "admorton@aol.com",
    "websites": "http://www.complexionsrx.com/",
    "lat": 32.725713,
    "lng": -117.160551,
    "source": "mykybella"
  },
  {
    "name": "Beauty Med/ Complexions Rx",
    "device": "Excel V",
    "address": "1940 5th Ave Suite 200, San Diego, CA 92101 - USA",
    "doctors": "",
    "phones": "(619) 683-2820",
    "emails": "",
    "websites": "",
    "lat": 32.725713,
    "lng": -117.160551,
    "source": "cutera"
  },
  {
    "name": "Complexions Rx",
    "device": "UltraPulse",
    "address": "1940 5th Avenue, Suite #200, San Diego, CA, 92101",
    "doctors": "Jane Eberlein Rebecka Cooperman",
    "phones": 6196832820,
    "emails": "complexionsrx@yahoo.com",
    "websites": "www.complexionsrx.com",
    "lat": 32.725713,
    "lng": -117.160551,
    "source": "lumenis"
  },
  {
    "name": "Naval Medical Center San Diego",
    "device": "M22",
    "address": "34800 Bob Wilson Dr Bio Med Bldg1 Grnd Flr, San Diego, CA, 92134",
    "doctors": "",
    "phones": "(619) 532-6400",
    "emails": "",
    "websites": "http://www.med.navy.mil/",
    "lat": 32.726453,
    "lng": -117.145573,
    "source": "lumenis"
  },
  {
    "name": "Naval Medical Center San Diego",
    "device": "Fraxel 1550",
    "address": "34800 Bob Wilson Dr Ste 106, San Diego, CA, 92134",
    "doctors": "James Amsberry MD; Trent Douglas MD; Katerina Gallus MD; Craig Sult MD; Nathan S Uebelhoer, DO",
    "phones": "619-532-9696",
    "emails": "",
    "websites": "http://www-nmcsd.med.navy.mil",
    "lat": 32.726453,
    "lng": -117.145573,
    "source": "soltamedical"
  },
  {
    "name": "Naval Medical Center - San Diego",
    "device": "Icon",
    "address": "34800 Bob Wilson Drive, San DIego, CA, 92134",
    "doctors": "",
    "phones": "(619) 532-6400",
    "emails": "",
    "websites": "",
    "lat": 32.726453,
    "lng": -117.145573,
    "source": "cynosure"
  },
  {
    "name": "Sharp HealthCare",
    "device": "Pelleve",
    "address": "2001 Fourth Ave, San Diego, CA, 92101",
    "doctors": ". .",
    "phones": "",
    "emails": "",
    "websites": "",
    "lat": 32.726836,
    "lng": -117.160895,
    "source": "cynosure"
  },
  {
    "name": "Alicja Steiner MD",
    "device": "Kybella",
    "address": "2100 5TH AVE #100 , SAN DIEGO, CA 92101",
    "doctors": "",
    "phones": "",
    "emails": "",
    "websites": "",
    "lat": 32.727459,
    "lng": -117.160413,
    "source": "mykybella"
  },
  {
    "name": "Exquisite MD Spa",
    "device": "LightSheer DESIRE",
    "address": "2100 Fifth Ave Ste 100, San Diego, CA, 92101",
    "doctors": "",
    "phones": "(619) 376-2466",
    "emails": "",
    "websites": "https://exquisitemdspa.com/",
    "lat": 32.727459,
    "lng": -117.160413,
    "source": "lumenis"
  },
  {
    "name": "Exquisite MD Spa",
    "device": "M22",
    "address": "2100 Fifth Ave Ste 100, San Diego, CA, 92101",
    "doctors": "",
    "phones": "(619) 376-2466",
    "emails": "",
    "websites": "https://exquisitemdspa.com/",
    "lat": 32.727459,
    "lng": -117.160413,
    "source": "lumenis"
  },
  {
    "name": "Garcia Plastic & Hand Surgery",
    "device": "LightSheer DESIRE",
    "address": "2100 fifth ave, ste 200, San diego, CA, 92101",
    "doctors": "Dr. Alicja Steiner",
    "phones": "619-376-2466",
    "emails": "cestrada@steinermd.com",
    "websites": "http://exquisitemdspa.com",
    "lat": 32.727459,
    "lng": -117.160413,
    "source": "lumenis"
  },
  {
    "name": "Garcia Plastic & Hand Surgery",
    "device": "M22",
    "address": "2100 fifth ave, ste 200, San diego, CA, 92101",
    "doctors": "Dr. Alicja Steiner",
    "phones": "619-376-2466",
    "emails": "cestrada@steinermd.com",
    "websites": "http://exquisitemdspa.com",
    "lat": 32.727459,
    "lng": -117.160413,
    "source": "lumenis"
  },
  {
    "name": "Garcia Plastic & Hand Surgery",
    "device": "ResurFX",
    "address": "2100 fifth ave, ste 200, San diego, CA, 92101",
    "doctors": "Dr. Alicja Steiner",
    "phones": "619-376-2466",
    "emails": "cestrada@steinermd.com",
    "websites": "http://exquisitemdspa.com",
    "lat": 32.727459,
    "lng": -117.160413,
    "source": "lumenis"
  },
  {
    "name": "Roger B Schechter MD",
    "device": "Kybella",
    "address": "2308 KETTNER BLVD STE C , SAN DIEGO, CA 92101",
    "doctors": "",
    "phones": "",
    "emails": "",
    "websites": "",
    "lat": 32.728214,
    "lng": -117.171404,
    "source": "mykybella"
  },
  {
    "name": "Alcheme",
    "device": "Clear + Brilliant Permea",
    "address": "2308 Kettner Blvd Ste C, San Diego, CA, 92101",
    "doctors": "Roger Schechter MD",
    "phones": "",
    "emails": "info@alchemehealth.com",
    "websites": "www.alchemehealth.com",
    "lat": 32.728214,
    "lng": -117.171404,
    "source": "soltamedical"
  },
  {
    "name": "Alcheme Health",
    "device": "LightSheer DESIRE",
    "address": "2308 Kettner Blvd Ste C, San Diego, CA, 92101",
    "doctors": "",
    "phones": "(619) 501-6523",
    "emails": "",
    "websites": "https://www.alchemehealth.com/",
    "lat": 32.728214,
    "lng": -117.171404,
    "source": "lumenis"
  },
  {
    "name": "Alcheme",
    "device": "Belotero",
    "address": "2308 Kettner Blvd Ste C,San Diego, ca, 92101",
    "doctors": "Roger B Schecter, MD,",
    "phones": "858-204-0529",
    "emails": "",
    "websites": "",
    "lat": 32.728214,
    "lng": -117.171404,
    "source": "ultherapy"
  },
  {
    "name": "Alcheme",
    "device": "Ultherapy",
    "address": "2308 Kettner Blvd Ste C,San Diego, ca, 92101",
    "doctors": "Roger B Schecter, MD,",
    "phones": "858-204-0529",
    "emails": "",
    "websites": "",
    "lat": 32.728214,
    "lng": -117.171404,
    "source": "ultherapy"
  },
  {
    "name": "Alcheme",
    "device": "Xeomin",
    "address": "2308 Kettner Blvd Ste C,San Diego, ca, 92101",
    "doctors": "Roger B Schecter, MD,",
    "phones": "858-204-0529",
    "emails": "",
    "websites": "",
    "lat": 32.728214,
    "lng": -117.171404,
    "source": "ultherapy"
  },
  {
    "name": "Alcheme Health",
    "device": "Belotero",
    "address": "2308 Kettner Blvd Ste C,San Diego, ca, 92101",
    "doctors": "Roger B Schechter, MD,",
    "phones": "619-501-6523",
    "emails": "",
    "websites": "",
    "lat": 32.728214,
    "lng": -117.171404,
    "source": "ultherapy"
  },
  {
    "name": "Alcheme Health",
    "device": "Radiesse",
    "address": "2308 Kettner Blvd Ste C,San Diego, ca, 92101",
    "doctors": "Roger B Schechter, MD,",
    "phones": "619-501-6523",
    "emails": "",
    "websites": "",
    "lat": 32.728214,
    "lng": -117.171404,
    "source": "ultherapy"
  },
  {
    "name": "Alcheme Health",
    "device": "Ultherapy",
    "address": "2308 Kettner Blvd Ste C,San Diego, ca, 92101",
    "doctors": "Roger B Schechter, MD,",
    "phones": "619-501-6523",
    "emails": "",
    "websites": "",
    "lat": 32.728214,
    "lng": -117.171404,
    "source": "ultherapy"
  },
  {
    "name": "Alcheme Health",
    "device": "Xeomin",
    "address": "2308 Kettner Blvd Ste C,San Diego, ca, 92101",
    "doctors": "Roger B Schechter, MD,",
    "phones": "619-501-6523",
    "emails": "",
    "websites": "",
    "lat": 32.728214,
    "lng": -117.171404,
    "source": "ultherapy"
  },
  {
    "name": "Reza Tirgari MD",
    "device": "Kybella",
    "address": "2445 5TH AVE STE 220 , SAN DIEGO, CA 92101",
    "doctors": "",
    "phones": "",
    "emails": "Info@avalon-laser.com",
    "websites": "http://www.avalon-laser.com/",
    "lat": 32.731109,
    "lng": -117.160033,
    "source": "mykybella"
  },
  {
    "name": "Avalon Laser",
    "device": "Clear + Brilliant Permea",
    "address": "2445 5th Ave Ste 240, San Diego, CA, 92101",
    "doctors": "Reza Tirgari MD",
    "phones": "619-990-1138",
    "emails": "info@avalon-laser.com",
    "websites": "www.avalon-laser.com, www.lipoandaesthetics.com",
    "lat": 32.731109,
    "lng": -117.160033,
    "source": "soltamedical"
  },
  {
    "name": "Avalon Laser",
    "device": "Thermage CPT",
    "address": "2445 5th Ave Ste 240, San Diego, CA, 92101",
    "doctors": "Reza Tirgari MD",
    "phones": "619-990-1138",
    "emails": "info@avalon-laser.com",
    "websites": "www.avalon-laser.com, www.lipoandaesthetics.com",
    "lat": 32.731109,
    "lng": -117.160033,
    "source": "soltamedical"
  },
  {
    "name": "Cosmedic Inc",
    "device": "Thermage CPT",
    "address": "2542 2nd Ave, San Diego, CA, 92103",
    "doctors": "Randal J Vecchione MD",
    "phones": "619-234-2508",
    "emails": "",
    "websites": "http://cosmedicinic.com",
    "lat": 32.731957,
    "lng": -117.163354,
    "source": "soltamedical"
  },
  {
    "name": "Cosmedic Inc",
    "device": "Thermage NXT",
    "address": "2542 2nd Ave, San Diego, CA, 92103",
    "doctors": "Randal J Vecchione MD",
    "phones": "619-234-2508",
    "emails": "",
    "websites": "http://cosmedicinic.com",
    "lat": 32.731957,
    "lng": -117.163354,
    "source": "soltamedical"
  },
  {
    "name": "Sinikka Green MD",
    "device": "Kybella",
    "address": "3033 5TH AVE STE 105 , SAN DIEGO, CA 92103",
    "doctors": "",
    "phones": "",
    "emails": "",
    "websites": "",
    "lat": 32.736989,
    "lng": -117.160068,
    "source": "mykybella"
  },
  {
    "name": "Allan C Churukian MD",
    "device": "Kybella",
    "address": "3307 4TH AVE , SAN DIEGO, CA 92103",
    "doctors": "",
    "phones": "",
    "emails": "",
    "websites": "",
    "lat": 32.739988,
    "lng": -117.161088,
    "source": "mykybella"
  },
  {
    "name": "Dr. Linhkieu T Nguyen MD Inc.",
    "device": "Elite MPX",
    "address": "3575 Euclid Ave, San Diego, CA, 92105",
    "doctors": "Linhkieu T Nguyen, MD",
    "phones": "619-284-1400",
    "emails": "",
    "websites": "",
    "lat": 32.743675,
    "lng": -117.092141,
    "source": "cynosure"
  },
  {
    "name": "Hilinski Plastic Surgery",
    "device": "CoolSculpting",
    "address": "3720 4th Ave, San Diego, CA, 92103",
    "doctors": "John Hilinski, M.D.",
    "phones": "1(619) 296-3223",
    "emails": "info@drhilinski.com",
    "websites": "https://www.drhilinski.com/non-surgical/coolsculpting-san-diego/",
    "lat": 32.745554,
    "lng": -117.161908,
    "source": "coolsculpting"
  },
  {
    "name": "LaserAway",
    "device": "Clear + Brilliant Permea",
    "address": "LaserAway - San Diego, 3739 Sixth St, San Diego, CA, 92103",
    "doctors": "LaserAway",
    "phones": "619-295-2929",
    "emails": "",
    "websites": "http://www.laseraway.net",
    "lat": 32.745844,
    "lng": -117.159366,
    "source": "soltamedical"
  },
  {
    "name": "LaserAway",
    "device": "Thermage NXT",
    "address": "LaserAway - San Diego, 3739 Sixth St, San Diego, CA, 92103",
    "doctors": "LaserAway",
    "phones": "619-295-2929",
    "emails": "",
    "websites": "http://www.laseraway.net",
    "lat": 32.745844,
    "lng": -117.159366,
    "source": "soltamedical"
  },
  {
    "name": "William L. Heimer II, MD",
    "device": "CoolSculpting",
    "address": "3737 Fourth Avenue, San Diego, CA, 92103",
    "doctors": "William L. Heimer II, MD",
    "phones": "1619-299-0700",
    "emails": "info@drheimer.com",
    "websites": "http://www.drheimer.com",
    "lat": 32.745857,
    "lng": -117.161332,
    "source": "coolsculpting"
  },
  {
    "name": "LaserAway - Hill Crest",
    "device": "CoolSculpting",
    "address": "3739 Sixth Ave, San Diego, CA, 92103",
    "doctors": "",
    "phones": "1(619) 295-2929",
    "emails": "contact@laseraway.net",
    "websites": "https://www.laseraway.com/services/coolsculpting/#sm.001cd0mbp157ydxpq291yp920roy7",
    "lat": 32.745916,
    "lng": -117.159241,
    "source": "coolsculpting"
  },
  {
    "name": "Laser Cafe",
    "device": "LightSheer DUET",
    "address": "1205 University Ave, San Diego, CA, 92103",
    "doctors": "",
    "phones": "(858) 349-8005",
    "emails": "",
    "websites": "https://thelasercafe.com/",
    "lat": 32.748169,
    "lng": -117.153084,
    "source": "lumenis"
  },
  {
    "name": "The Laser Cafe Medical Spa",
    "device": "Icon",
    "address": "1205 University Ave, San Diego, CA, 92103",
    "doctors": "Charles Sarosy, MD",
    "phones": "(619) 795-8303",
    "emails": "",
    "websites": "",
    "lat": 32.748169,
    "lng": -117.153084,
    "source": "cynosure"
  },
  {
    "name": "The Laser Cafe Medical Spa",
    "device": "SculpSure",
    "address": "1205 University Ave, San Diego, CA, 92103",
    "doctors": "Charles Sarosy, MD",
    "phones": "(619) 795-8303",
    "emails": "",
    "websites": "",
    "lat": 32.748169,
    "lng": -117.153084,
    "source": "cynosure"
  },
  {
    "name": "San Diego Botox",
    "device": "Excel V",
    "address": "3900 5TH AVENUE, SUITE 140, San Diego, CA 92103 - USA",
    "doctors": "",
    "phones": "(619) 365-9959",
    "emails": "",
    "websites": "",
    "lat": 32.74855,
    "lng": -117.160895,
    "source": "cutera"
  },
  {
    "name": "Perlman Clinic",
    "device": "ClearLift",
    "address": "3900 Fifth Ave #110 San Diego, CA 92103 United States",
    "doctors": "",
    "phones": "858-554-1212",
    "emails": "",
    "websites": "",
    "lat": 32.74855,
    "lng": -117.160895,
    "source": "almalasers"
  },
  {
    "name": "SD Botox",
    "device": "CoolSculpting",
    "address": "3900 Fifth Ave, Suite 140, San Diego, CA, 92103",
    "doctors": "Alex Roher, MD",
    "phones": "1 (844) 732-6869",
    "emails": "sdbotoxhillcrest@gmail.com",
    "websites": "https://sdbotox.com/services/coolsculpting/",
    "lat": 32.74855,
    "lng": -117.160895,
    "source": "coolsculpting"
  },
  {
    "name": "Alex Roher MD",
    "device": "Kybella",
    "address": "3900 5TH ST STE 140 , SAN DIEGO, CA 92103",
    "doctors": "",
    "phones": "",
    "emails": "Shirley@SDBotox.com",
    "websites": "http://www.sdbotox.com/",
    "lat": 32.748684,
    "lng": -117.160904,
    "source": "mykybella"
  },
  {
    "name": "Medical Age Management",
    "device": "Kybella",
    "address": "3911 NORMAL ST , SAN DIEGO, CA 92103",
    "doctors": "",
    "phones": "",
    "emails": "doctor@manageyourage.com",
    "websites": "http://www.manageyourage.com/",
    "lat": 32.74884,
    "lng": -117.149247,
    "source": "mykybella"
  },
  {
    "name": "Ageless and Beautiful Medical Spa",
    "device": "CoolSculpting",
    "address": "1080 University Ave #201, San Diego, CA, 92103",
    "doctors": "Dr. Sean Daneshmand",
    "phones": "1(619) 299-0264",
    "emails": "",
    "websites": "http://agelessandbeautiful.com",
    "lat": 32.749489,
    "lng": -117.153727,
    "source": "coolsculpting"
  },
  {
    "name": "Ageless & Beautiful Anti-Aging",
    "device": "Liposonix",
    "address": "1080 University Ave Ste 201, San Diego, CA, 92101",
    "doctors": "Sean Daneshmand MD",
    "phones": "619-299-0264",
    "emails": "",
    "websites": "http://www.agelessandbeautiful.com",
    "lat": 32.749489,
    "lng": -117.153727,
    "source": "soltamedical"
  },
  {
    "name": "Ageless & Beautiful Anti-Aging",
    "device": "Thermage CPT",
    "address": "1080 University Ave Ste 201, San Diego, CA, 92101",
    "doctors": "Sean Daneshmand MD",
    "phones": "619-299-0264",
    "emails": "",
    "websites": "http://www.agelessandbeautiful.com",
    "lat": 32.749489,
    "lng": -117.153727,
    "source": "soltamedical"
  },
  {
    "name": "Ageless & Beautiful Anti-Aging",
    "device": "Thermage NXT",
    "address": "1080 University Ave Ste 201, San Diego, CA, 92101",
    "doctors": "Sean Daneshmand MD",
    "phones": "619-299-0264",
    "emails": "",
    "websites": "http://www.agelessandbeautiful.com",
    "lat": 32.749489,
    "lng": -117.153727,
    "source": "soltamedical"
  },
  {
    "name": "Ageless & Beautiful Anti-Aging",
    "device": "VASERlipo",
    "address": "1080 University Ave Ste 201, San Diego, CA, 92101",
    "doctors": "Sean Daneshmand MD",
    "phones": "619-299-0264",
    "emails": "",
    "websites": "http://www.agelessandbeautiful.com",
    "lat": 32.749489,
    "lng": -117.153727,
    "source": "soltamedical"
  },
  {
    "name": "Michelle Pelle MD",
    "device": "Kybella",
    "address": "501 WASHINGTON ST STE 502 , SAN DIEGO, CA 92103",
    "doctors": "",
    "phones": "",
    "emails": "Frontoffice@medderm.net",
    "websites": "http://www.medderm.net/",
    "lat": 32.749741,
    "lng": -117.159991,
    "source": "mykybella"
  },
  {
    "name": "MedDerm - Michelle Pelle, M.D.",
    "device": "BBL",
    "address": "501 Washington Street, Suite 502, San Diego, CA, 92103",
    "doctors": "",
    "phones": "",
    "emails": "",
    "websites": "http://medderm.net/?gclid=CLni_fnX160CFcYbQgod6xj3mg",
    "lat": 32.749741,
    "lng": -117.159991,
    "source": "sciton"
  },
  {
    "name": "MedDerm - Michelle Pelle, M.D.",
    "device": "ClearScan YAG",
    "address": "501 Washington Street, Suite 502, San Diego, CA, 92103",
    "doctors": "",
    "phones": "",
    "emails": "",
    "websites": "http://medderm.net/?gclid=CLni_fnX160CFcYbQgod6xj3mg",
    "lat": 32.749741,
    "lng": -117.159991,
    "source": "sciton"
  },
  {
    "name": "MedDerm - Michelle Pelle, M.D.",
    "device": "Contour TRL",
    "address": "501 Washington Street, Suite 502, San Diego, CA, 92103",
    "doctors": "",
    "phones": "",
    "emails": "",
    "websites": "http://medderm.net/?gclid=CLni_fnX160CFcYbQgod6xj3mg",
    "lat": 32.749741,
    "lng": -117.159991,
    "source": "sciton"
  },
  {
    "name": "MedDerm - Michelle Pelle, M.D.",
    "device": "SkinTyte",
    "address": "501 Washington Street, Suite 502, San Diego, CA, 92103",
    "doctors": "",
    "phones": "",
    "emails": "",
    "websites": "http://medderm.net/?gclid=CLni_fnX160CFcYbQgod6xj3mg",
    "lat": 32.749741,
    "lng": -117.159991,
    "source": "sciton"
  },
  {
    "name": "MedDerm - Michelle Pelle, M.D.",
    "device": "ThermaScan",
    "address": "501 Washington Street, Suite 502, San Diego, CA, 92103",
    "doctors": "",
    "phones": "",
    "emails": "",
    "websites": "http://medderm.net/?gclid=CLni_fnX160CFcYbQgod6xj3mg",
    "lat": 32.749741,
    "lng": -117.159991,
    "source": "sciton"
  },
  {
    "name": "West Dermatology - Hillcrest",
    "device": "M22",
    "address": "4060 4th Ave, Ste #415, San Diego, CA, 92103",
    "doctors": "Lisa A Zaleski-Larsen, D.O., F.A.A.D.\n Stephen Hemperly, DO\n Kelly L. Reed, DO, FAOCD",
    "phones": "(619) 371-9322",
    "emails": "",
    "websites": "https://westdermatology.com/california/hillcrest/",
    "lat": 32.751089,
    "lng": -117.161906,
    "source": "lumenis"
  },
  {
    "name": "West Dermatology- Rancho Mirage",
    "device": "BBL",
    "address": "4060 4th Ave, Unit 415, San Diego, CA, 92103",
    "doctors": "",
    "phones": "",
    "emails": "",
    "websites": "",
    "lat": 32.751089,
    "lng": -117.161906,
    "source": "sciton"
  },
  {
    "name": "West Dermatology- Rancho Mirage",
    "device": "ClearScan YAG",
    "address": "4060 4th Ave, Unit 415, San Diego, CA, 92103",
    "doctors": "",
    "phones": "",
    "emails": "",
    "websites": "",
    "lat": 32.751089,
    "lng": -117.161906,
    "source": "sciton"
  },
  {
    "name": "West Dermatology- Rancho Mirage",
    "device": "Contour TRL",
    "address": "4060 4th Ave, Unit 415, San Diego, CA, 92103",
    "doctors": "",
    "phones": "",
    "emails": "",
    "websites": "",
    "lat": 32.751089,
    "lng": -117.161906,
    "source": "sciton"
  },
  {
    "name": "West Dermatology- Rancho Mirage",
    "device": "ProFractional",
    "address": "4060 4th Ave, Unit 415, San Diego, CA, 92103",
    "doctors": "",
    "phones": "",
    "emails": "",
    "websites": "",
    "lat": 32.751089,
    "lng": -117.161906,
    "source": "sciton"
  },
  {
    "name": "West Dermatology- Rancho Mirage",
    "device": "SkinTyte",
    "address": "4060 4th Ave, Unit 415, San Diego, CA, 92103",
    "doctors": "",
    "phones": "",
    "emails": "",
    "websites": "",
    "lat": 32.751089,
    "lng": -117.161906,
    "source": "sciton"
  },
  {
    "name": "Dermatology & Laser Center of San Diego",
    "device": "Icon",
    "address": "4060 Fourth Ave, Suite 209, San Diego, CA, 92103",
    "doctors": "Mark A Willoughby, MD; Erick A Mafong, MD; Amy Han, MD; Cole B Willoughby, MD; Amy C Ellsworth, PA-C; Erica Ventrella, PA-C",
    "phones": "(619)298-9535",
    "emails": "",
    "websites": "",
    "lat": 32.751089,
    "lng": -117.161906,
    "source": "cynosure"
  },
  {
    "name": "Dermatology & Laser Center of San Diego",
    "device": "MedLite C6",
    "address": "4060 Fourth Ave, Suite 209, San Diego, CA, 92103",
    "doctors": "Mark A Willoughby, MD; Erick A Mafong, MD; Amy Han, MD; Cole B Willoughby, MD; Amy C Ellsworth, PA-C; Erica Ventrella, PA-C",
    "phones": "(619)298-9535",
    "emails": "",
    "websites": "",
    "lat": 32.751089,
    "lng": -117.161906,
    "source": "cynosure"
  },
  {
    "name": "Dermatology & Laser Center of San Diego",
    "device": "Vectus",
    "address": "4060 Fourth Ave, Suite 209, San Diego, CA, 92103",
    "doctors": "Mark A Willoughby, MD; Erick A Mafong, MD; Amy Han, MD; Cole B Willoughby, MD; Amy C Ellsworth, PA-C; Erica Ventrella, PA-C",
    "phones": "(619)298-9535",
    "emails": "",
    "websites": "",
    "lat": 32.751089,
    "lng": -117.161906,
    "source": "cynosure"
  },
  {
    "name": "West Dermatology",
    "device": "CoolSculpting",
    "address": "4060 Fourth Ave., San Diego, CA, 92103",
    "doctors": "",
    "phones": "1(619) 298-9809",
    "emails": "",
    "websites": "https://westdermatology.com/",
    "lat": 32.751089,
    "lng": -117.161906,
    "source": "coolsculpting"
  },
  {
    "name": "Beauty and Body Medlounge",
    "device": "Kybella",
    "address": "1450 WASHINGTON ST , SAN DIEGO, CA 92103",
    "doctors": "",
    "phones": "",
    "emails": "patients@beautyandbodylounge.com",
    "websites": "http://www.beautyandbodylounge.com/",
    "lat": 32.752106,
    "lng": -117.15012,
    "source": "mykybella"
  },
  {
    "name": "Beauty and Body Lounge Medical Spa",
    "device": "Xeo",
    "address": "1450 Washington Street, San Diego, CA 92103 - USA",
    "doctors": "",
    "phones": "(619) 692-9300",
    "emails": "",
    "websites": "http://beautyandbodylounge.com/",
    "lat": 32.752106,
    "lng": -117.15012,
    "source": "cutera"
  },
  {
    "name": "UCSD Medical Center",
    "device": "M22",
    "address": "Burn Treatment Center 200 W Arbor Dr, San Diego, CA, 92103",
    "doctors": "",
    "phones": "858-657-7000",
    "emails": "",
    "websites": "https://health.ucsd.edu/locations",
    "lat": 32.75427,
    "lng": -117.166135,
    "source": "lumenis"
  },
  {
    "name": "Beatitude Aesthetic Medicine & Acne Center",
    "device": "Belotero",
    "address": "5030 Camino de la Siesta Ste 101,San Diego, ca, 92108",
    "doctors": "Scott Eisenberg, Aeria Chang, MD,",
    "phones": "858-668-6133",
    "emails": "",
    "websites": "",
    "lat": 32.764572,
    "lng": -117.160436,
    "source": "ultherapy"
  },
  {
    "name": "Beatitude Aesthetic Medicine & Acne Center",
    "device": "Radiesse",
    "address": "5030 Camino de la Siesta Ste 101,San Diego, ca, 92108",
    "doctors": "Scott Eisenberg, Aeria Chang, MD,",
    "phones": "858-668-6133",
    "emails": "",
    "websites": "",
    "lat": 32.764572,
    "lng": -117.160436,
    "source": "ultherapy"
  },
  {
    "name": "Beatitude Aesthetic Medicine & Acne Center",
    "device": "Ultherapy",
    "address": "5030 Camino de la Siesta Ste 101,San Diego, ca, 92108",
    "doctors": "Scott Eisenberg, Aeria Chang, MD,",
    "phones": "858-668-6133",
    "emails": "",
    "websites": "",
    "lat": 32.764572,
    "lng": -117.160436,
    "source": "ultherapy"
  },
  {
    "name": "Beatitude Aesthetic Medicine & Acne Center",
    "device": "Xeomin",
    "address": "5030 Camino de la Siesta Ste 101,San Diego, ca, 92108",
    "doctors": "Scott Eisenberg, Aeria Chang, MD,",
    "phones": "858-668-6133",
    "emails": "",
    "websites": "",
    "lat": 32.764572,
    "lng": -117.160436,
    "source": "ultherapy"
  },
  {
    "name": "Christine Eros MD",
    "device": "Kybella",
    "address": "5030 CAMINO DE LA SIESTA STE 204 , SAN DIEGO, CA 92108",
    "doctors": "",
    "phones": "",
    "emails": "",
    "websites": "",
    "lat": 32.764572,
    "lng": -117.160436,
    "source": "mykybella"
  },
  {
    "name": "Eros Beauty and Wellness",
    "device": "SculpSure",
    "address": "5030 camino de la siesta, #204, San Diego, CA, 92108",
    "doctors": "Christine Eros, Dr.",
    "phones": "619 481-4651",
    "emails": "",
    "websites": "",
    "lat": 32.764572,
    "lng": -117.160436,
    "source": "cynosure"
  },
  {
    "name": "Dr. Christine Eros",
    "device": "SculpSure",
    "address": "5030 Camino De La Siesta, Suite 204, San Diego, CA, 92108",
    "doctors": "Christine Eros, Dr.",
    "phones": "(619) 481-4651",
    "emails": "",
    "websites": "",
    "lat": 32.764572,
    "lng": -117.160436,
    "source": "cynosure"
  },
  {
    "name": "Beatitude Aesthetic Medicine",
    "device": "Venus Freeze",
    "address": "101-5030 Camino De La Siesta San, Diego CA 92108, United States",
    "doctors": "",
    "phones": "(619) 280-1609",
    "emails": "",
    "websites": "http://beatitudemedicalspa.com/",
    "lat": 32.764574,
    "lng": -117.160731,
    "source": "venustreatment"
  },
  {
    "name": "Beatitude Aesthetic Medicine",
    "device": "Venus Viva",
    "address": "101-5030 Camino De La Siesta San, Diego CA 92108, United States",
    "doctors": "",
    "phones": "(619) 280-1609",
    "emails": "",
    "websites": "http://beatitudemedicalspa.com/",
    "lat": 32.764574,
    "lng": -117.160731,
    "source": "venustreatment"
  },
  {
    "name": "AAI Plastic Surgery",
    "device": "CoolSculpting",
    "address": "8415 Grant Ave, La Mesa, CA, 91941",
    "doctors": "Dr. Susan Kaweski",
    "phones": "1 (619) 464-9876",
    "emails": "mirap@pacbell.net",
    "websites": "http://plasticsurgerysandiego.com",
    "lat": 32.766259,
    "lng": -117.015659,
    "source": "coolsculpting"
  },
  {
    "name": "Aesthetic Arts Institute of Plastic Surgery",
    "device": "Cellulaze",
    "address": "8415 Grant Avenue, La Mesa, CA, 91941",
    "doctors": "Susan Kaweski, MD, FACS",
    "phones": "619-464-9876",
    "emails": "",
    "websites": "",
    "lat": 32.766259,
    "lng": -117.015659,
    "source": "cynosure"
  },
  {
    "name": "Aesthetic Arts Institute of Plastic Surgery",
    "device": "Smartlipo TriPlex",
    "address": "8415 Grant Avenue, La Mesa, CA, 91941",
    "doctors": "Susan Kaweski, MD, FACS",
    "phones": "619-464-9876",
    "emails": "",
    "websites": "",
    "lat": 32.766259,
    "lng": -117.015659,
    "source": "cynosure"
  },
  {
    "name": "Dr. Ed Parsley",
    "device": "Kybella",
    "address": "2221 CAMINO DEL RIO S STE 104 , SAN DIEGO, CA 92108",
    "doctors": "",
    "phones": "",
    "emails": "aestheticamedspasd@gmail.com",
    "websites": "http://www.aestheticamedspasd.com/",
    "lat": 32.766595,
    "lng": -117.141284,
    "source": "mykybella"
  },
  {
    "name": "Renew Laser and Skin Care",
    "device": "Xeo",
    "address": "1400 Camino De La Reina Suite 107, San Diego, CA 92108 - USA",
    "doctors": "",
    "phones": "(619) 299-7546",
    "emails": "",
    "websites": "http://www.renewlaserandskincare.com/",
    "lat": 32.769166,
    "lng": -117.152119,
    "source": "cutera"
  },
  {
    "name": "Global Laser Cosmetics",
    "device": "Xeo",
    "address": "6950 Friars Road Suite 100, San Diego, CA 92108 - USA",
    "doctors": "",
    "phones": "(619) 243-2444",
    "emails": "",
    "websites": "http://www.globalcosmeticsurgery.com/",
    "lat": 32.769319,
    "lng": -117.17093,
    "source": "cutera"
  },
  {
    "name": "Timeless Age-Defying Laser Clinic, Inc",
    "device": "Excel V",
    "address": "7510 Hazard Center Dr #607, San Diego, CA 92108 - USA",
    "doctors": "",
    "phones": "(619) 294-8463",
    "emails": "",
    "websites": "",
    "lat": 32.770731,
    "lng": -117.159747,
    "source": "cutera"
  },
  {
    "name": "Revive Salon And Spa",
    "device": "Kybella",
    "address": "1425 FRAZEE RD , SAN DIEGO, CA 92108",
    "doctors": "",
    "phones": "",
    "emails": "info@revivesalonandspa.com",
    "websites": "http://www.revivesalonandspa.com/",
    "lat": 32.773433,
    "lng": -117.157702,
    "source": "mykybella"
  },
  {
    "name": "Revive Salon and Spa",
    "device": "BBL",
    "address": "1425 Frazee Rd, San Diego, CA, 92108",
    "doctors": "",
    "phones": "",
    "emails": "",
    "websites": "revivesalonandspa.com",
    "lat": 32.773433,
    "lng": -117.157702,
    "source": "sciton"
  },
  {
    "name": "Revive Salon and Spa",
    "device": "ClearScan YAG",
    "address": "1425 Frazee Rd, San Diego, CA, 92108",
    "doctors": "",
    "phones": "",
    "emails": "",
    "websites": "revivesalonandspa.com",
    "lat": 32.773433,
    "lng": -117.157702,
    "source": "sciton"
  },
  {
    "name": "Revive Salon and Spa",
    "device": "Forever Bare BBL",
    "address": "1425 Frazee Rd, San Diego, CA, 92108",
    "doctors": "",
    "phones": "",
    "emails": "",
    "websites": "revivesalonandspa.com",
    "lat": 32.773433,
    "lng": -117.157702,
    "source": "sciton"
  },
  {
    "name": "Revive Salon and Spa",
    "device": "Halo",
    "address": "1425 Frazee Rd, San Diego, CA, 92108",
    "doctors": "",
    "phones": "",
    "emails": "",
    "websites": "revivesalonandspa.com",
    "lat": 32.773433,
    "lng": -117.157702,
    "source": "sciton"
  },
  {
    "name": "Revive Salon and Spa",
    "device": "SkinTyte",
    "address": "1425 Frazee Rd, San Diego, CA, 92108",
    "doctors": "",
    "phones": "",
    "emails": "",
    "websites": "revivesalonandspa.com",
    "lat": 32.773433,
    "lng": -117.157702,
    "source": "sciton"
  },
  {
    "name": "Revive Salon & Spa",
    "device": "MedLite C6",
    "address": "1425 Frazee Road, San Diego, CA, 92108",
    "doctors": "Vishal Verma, Dr.",
    "phones": "619-293-7233",
    "emails": "",
    "websites": "",
    "lat": 32.773433,
    "lng": -117.157702,
    "source": "cynosure"
  },
  {
    "name": "Revive Salon & Spa",
    "device": "Vectus",
    "address": "1425 Frazee Road, San Diego, CA, 92108",
    "doctors": "Vishal Verma, Dr.",
    "phones": "619-293-7233",
    "emails": "",
    "websites": "",
    "lat": 32.773433,
    "lng": -117.157702,
    "source": "cynosure"
  },
  {
    "name": "Revive Salon & Spa Mission Valley",
    "device": "CoolSculpting",
    "address": "1425 Frazee Road, San Diego, CA, 92108",
    "doctors": "Vishal Verma, MD",
    "phones": "1(619) 293-7233",
    "emails": "info@revivesalonandspa.com",
    "websites": "http://www.revivesalonandspa.com",
    "lat": 32.773433,
    "lng": -117.157702,
    "source": "coolsculpting"
  },
  {
    "name": "Ellyn Levine",
    "device": "Enlighten",
    "address": "5290 Baltimore Drive., La Mesa, CA 91942 - USA",
    "doctors": "",
    "phones": "(619) 567-6914",
    "emails": "",
    "websites": "",
    "lat": 32.775763,
    "lng": -117.028194,
    "source": "cutera"
  },
  {
    "name": "Ellyn Levine",
    "device": "Xeo",
    "address": "5290 Baltimore Drive., La Mesa, CA 91942 - USA",
    "doctors": "",
    "phones": "(619) 567-6914",
    "emails": "",
    "websites": "",
    "lat": 32.775763,
    "lng": -117.028194,
    "source": "cutera"
  },
  {
    "name": "The Sugar Spa",
    "device": "Elite",
    "address": "6386 Alvarado Court, Ste# 340, San Diego, CA, 92120",
    "doctors": "Fred Corey, MD",
    "phones": "(619) 286-7414",
    "emails": "",
    "websites": "",
    "lat": 32.776164,
    "lng": -117.060238,
    "source": "cynosure"
  },
  {
    "name": "Parvin Mani, M.D., F.A.C.O.G",
    "device": "Kybella",
    "address": "5555 RESERVOIR DR #208 , SAN DIEGO, CA 92120",
    "doctors": "",
    "phones": "",
    "emails": "parvinmani@yahoo.com",
    "websites": "http://www.sdcosmeticlaser.com/",
    "lat": 32.776168,
    "lng": -117.056009,
    "source": "mykybella"
  },
  {
    "name": "San Diego Sexual Medicine",
    "device": "MonaLisa Touch",
    "address": "5555 Reservoir Drive, Suite 300, San Diego, CA, 92120",
    "doctors": "Irwin Goldstein, MD",
    "phones": "(619) 265-8865",
    "emails": "",
    "websites": "",
    "lat": 32.776168,
    "lng": -117.056009,
    "source": "cynosure"
  },
  {
    "name": "San Diego Cosmetic Laser Clinic",
    "device": "LightSheer DUET",
    "address": "5555 Reservoir Drive. #208, San Diego, CA, 92120",
    "doctors": "Parvin MANI Parvin Mani",
    "phones": 6195837555,
    "emails": "parvinmani@yahoo.com",
    "websites": "WWW.SDCOSMETICLASER./COM",
    "lat": 32.776168,
    "lng": -117.056009,
    "source": "lumenis"
  },
  {
    "name": "Barry Handler, MD",
    "device": "Xeo",
    "address": "6699 Alvarado Road Suite 2305, San Diego, CA 92120 - USA",
    "doctors": "",
    "phones": "(619) 583-4222",
    "emails": "",
    "websites": "http://www.barryhandlermd.com/",
    "lat": 32.776627,
    "lng": -117.055089,
    "source": "cutera"
  },
  {
    "name": "Barry S. Handler, MD",
    "device": "Cellulaze",
    "address": "6699 Alvarado Road, Suite 2305, San Diego, CA, 92120",
    "doctors": "Barry Handler, MD",
    "phones": "(619) 583-4222",
    "emails": "",
    "websites": "",
    "lat": 32.776627,
    "lng": -117.055089,
    "source": "cynosure"
  },
  {
    "name": "Barry S. Handler, MD",
    "device": "Smartlipo TriPlex",
    "address": "6699 Alvarado Road, Suite 2305, San Diego, CA, 92120",
    "doctors": "Barry Handler, MD",
    "phones": "(619) 583-4222",
    "emails": "",
    "websites": "",
    "lat": 32.776627,
    "lng": -117.055089,
    "source": "cynosure"
  },
  {
    "name": "Diana Breister Ghosh M.D.",
    "device": "Kybella",
    "address": "2275 RIO BONITO WAY STE 220 , SAN DIEGO, CA 92108",
    "doctors": "",
    "phones": "",
    "emails": "",
    "websites": "",
    "lat": 32.777254,
    "lng": -117.137045,
    "source": "mykybella"
  },
  {
    "name": "Jason D Toranto MD",
    "device": "Kybella",
    "address": "3590 CAMINO DEL RIO N , SAN DIEGO, CA 92108",
    "doctors": "",
    "phones": "",
    "emails": "",
    "websites": "",
    "lat": 32.779182,
    "lng": -117.117053,
    "source": "mykybella"
  },
  {
    "name": "Scripps Clinic Mission Valley",
    "device": "Excel V",
    "address": "7565 Mission Valley Rd STE 200, San Diego, CA 92108 - USA",
    "doctors": "",
    "phones": "858.538.6890",
    "emails": "",
    "websites": "",
    "lat": 32.779254,
    "lng": -117.158798,
    "source": "cutera"
  },
  {
    "name": "Beatitude Aesthetic Medicine & Acne Center",
    "device": "Clear + Brilliant Permea",
    "address": "9040 Friars Rd #500, San Diego, CA, 92108",
    "doctors": "Aeria Chang MD",
    "phones": "619-280-1609",
    "emails": "info@beatitudemedicalspa.com",
    "websites": "http://www.beatitudemedspa.com",
    "lat": 32.779466,
    "lng": -117.135437,
    "source": "soltamedical"
  },
  {
    "name": "Beatitude Aesthetic Medicine & Acne Center",
    "device": "Fraxel DUAL 1550/1927",
    "address": "9040 Friars Rd #500, San Diego, CA, 92108",
    "doctors": "Aeria Chang MD",
    "phones": "619-280-1609",
    "emails": "info@beatitudemedicalspa.com",
    "websites": "http://www.beatitudemedspa.com",
    "lat": 32.779466,
    "lng": -117.135437,
    "source": "soltamedical"
  },
  {
    "name": "Beatitude Aesthetic Medicine & Acne Center",
    "device": "Isolaz",
    "address": "9040 Friars Rd #500, San Diego, CA, 92108",
    "doctors": "Aeria Chang MD",
    "phones": "619-280-1609",
    "emails": "info@beatitudemedicalspa.com",
    "websites": "http://www.beatitudemedspa.com",
    "lat": 32.779466,
    "lng": -117.135437,
    "source": "soltamedical"
  },
  {
    "name": "Beatitude Aesthetic Medicine & Acne Center",
    "device": "Thermage CPT",
    "address": "9040 Friars Rd #500, San Diego, CA, 92108",
    "doctors": "Aeria Chang MD",
    "phones": "619-280-1609",
    "emails": "info@beatitudemedicalspa.com",
    "websites": "http://www.beatitudemedspa.com",
    "lat": 32.779466,
    "lng": -117.135437,
    "source": "soltamedical"
  },
  {
    "name": "Beatitude Aesthetic Medicine & Acne Center",
    "device": "Thermage NXT",
    "address": "9040 Friars Rd #500, San Diego, CA, 92108",
    "doctors": "Aeria Chang MD",
    "phones": "619-280-1609",
    "emails": "info@beatitudemedicalspa.com",
    "websites": "http://www.beatitudemedspa.com",
    "lat": 32.779466,
    "lng": -117.135437,
    "source": "soltamedical"
  },
  {
    "name": "California Cosmetic Laser Clinic",
    "device": "Liposonix",
    "address": "1498 S LaBrucherie Road, El Centro, CA, 92243",
    "doctors": "Majid Mani MD",
    "phones": "760-482-5522",
    "emails": "",
    "websites": "http://www.elcentrobotox.com",
    "lat": 32.77973,
    "lng": -115.578794,
    "source": "soltamedical"
  },
  {
    "name": "California Cosmetic Laser Clinic",
    "device": "Thermage NXT",
    "address": "1498 S LaBrucherie Road, El Centro, CA, 92243",
    "doctors": "Majid Mani MD",
    "phones": "760-482-5522",
    "emails": "",
    "websites": "http://www.elcentrobotox.com",
    "lat": 32.77973,
    "lng": -115.578794,
    "source": "soltamedical"
  },
  {
    "name": "Majid Mani MD",
    "device": "Fraxel 1550",
    "address": "1452 S La Brucherie Rd Ste B, El Centro, CA, 92243",
    "doctors": "Majid Mani MD",
    "phones": "760-482-5511",
    "emails": "",
    "websites": "http://www.elcentrobotox.com",
    "lat": 32.780141,
    "lng": -115.578794,
    "source": "soltamedical"
  },
  {
    "name": "Alvarado Institute of Skin Care",
    "device": "CoolSculpting",
    "address": "5565 Grossmont Center Dr Bldg 1 Ste 126, La Mesa, CA, 91942",
    "doctors": "Bernard Michlin, MD",
    "phones": "1(619) 286-0372",
    "emails": "instituteofskincare@yahoo.com",
    "websites": "http://alvaradoskin.com",
    "lat": 32.780255,
    "lng": -117.00947,
    "source": "coolsculpting"
  },
  {
    "name": "Alvarado Institute of Skin Care",
    "device": "ClearLift",
    "address": "5565 Grossmont Center Drive, Bldg1 Ste 126 La Mesa CA 91942 United States",
    "doctors": "",
    "phones": "866-696-7981",
    "emails": "",
    "websites": "",
    "lat": 32.780255,
    "lng": -117.00947,
    "source": "almalasers"
  },
  {
    "name": "Alvarado Institute of Skin Care",
    "device": "TempSure RF",
    "address": "5565 Grossmont Center Drive, Building 1 Suite 126, La Mesa, CA, 91942",
    "doctors": "Bernard Michlin, MD",
    "phones": "(619) 286-0372",
    "emails": "",
    "websites": "",
    "lat": 32.780255,
    "lng": -117.00947,
    "source": "cynosure"
  },
  {
    "name": "Bernard A Michlin MD",
    "device": "Kybella",
    "address": "5565 GROSSMONT CTR DR , LA MESA, CA 91942",
    "doctors": "",
    "phones": "",
    "emails": "",
    "websites": "",
    "lat": 32.780255,
    "lng": -117.00947,
    "source": "mykybella"
  },
  {
    "name": "SD Body Contouring",
    "device": "Venus Freeze",
    "address": "8690 Center Dr. La, Mesa CA 91942, United States",
    "doctors": "",
    "phones": "(617) 697-1325",
    "emails": "",
    "websites": "http://sdbodycontouring.com/",
    "lat": 32.781034,
    "lng": -117.011501,
    "source": "venustreatment"
  },
  {
    "name": "SD Body Contouring",
    "device": "M22",
    "address": "8690 Center Dr., La Mesa, CA, 91942",
    "doctors": "Charles J Sarosy MD",
    "phones": 6196971325,
    "emails": "veinlipodoc@aol.com",
    "websites": "http://sdbodycontouring.com",
    "lat": 32.781034,
    "lng": -117.011501,
    "source": "lumenis"
  },
  {
    "name": "SD Body Contouring",
    "device": "ResurFX",
    "address": "8690 Center Dr., La Mesa, CA, 91942",
    "doctors": "Charles J Sarosy MD",
    "phones": 6196971325,
    "emails": "veinlipodoc@aol.com",
    "websites": "http://sdbodycontouring.com",
    "lat": 32.781034,
    "lng": -117.011501,
    "source": "lumenis"
  },
  {
    "name": "East County Vein & Liposculpture Center",
    "device": "LightSheer DUET",
    "address": "8690 Center Drive, La Mesa, CA, 91942",
    "doctors": "",
    "phones": "619-697-1325",
    "emails": "",
    "websites": "http://sdbodycontouring.com/",
    "lat": 32.781034,
    "lng": -117.011501,
    "source": "lumenis"
  },
  {
    "name": "East County Vein & Liposculpture Center",
    "device": "M22",
    "address": "8690 Center Drive, La Mesa, CA, 91942",
    "doctors": "",
    "phones": "619-697-1325",
    "emails": "",
    "websites": "http://sdbodycontouring.com/",
    "lat": 32.781034,
    "lng": -117.011501,
    "source": "lumenis"
  },
  {
    "name": "SD Body Contouring",
    "device": "Icon",
    "address": "8690 Center Drive, San Diego, CA, 91942",
    "doctors": "Charles J Sarosy, Dr.",
    "phones": "(619) 697-1325",
    "emails": "",
    "websites": "",
    "lat": 32.781034,
    "lng": -117.011501,
    "source": "cynosure"
  },
  {
    "name": "SD Body Contouring",
    "device": "SculpSure",
    "address": "8690 Center Drive, San Diego, CA, 91942",
    "doctors": "Charles J Sarosy, Dr.",
    "phones": "(619) 697-1325",
    "emails": "",
    "websites": "",
    "lat": 32.781034,
    "lng": -117.011501,
    "source": "cynosure"
  },
  {
    "name": "San Diego Urology Associates",
    "device": "MonaLisa Touch",
    "address": "8851 Center Dr, LA Mesa, CA, 91942",
    "doctors": "Scott L Brown, M.D.",
    "phones": "(619) 828-1000",
    "emails": "",
    "websites": "",
    "lat": 32.782274,
    "lng": -117.007477,
    "source": "cynosure"
  },
  {
    "name": "Pousti Plastic Surgery",
    "device": "CoolSculpting",
    "address": "8851 Center Dr., # 300, La Mesa, CA, 91942",
    "doctors": "Tom J. Pousti, MD",
    "phones": "1619-466-8851",
    "emails": "info@pousti.com",
    "websites": "http://www.poustiplasticsurgery.com",
    "lat": 32.782274,
    "lng": -117.007477,
    "source": "coolsculpting"
  },
  {
    "name": "Grossmont Dermatology",
    "device": "Clear + Brilliant Permea",
    "address": "8860 Center Dr Ste 300, La Mesa, CA, 91942",
    "doctors": "Maki Christine Goskowicz MD",
    "phones": "619-462-1670",
    "emails": "",
    "websites": "www.grossmontdermatology.com",
    "lat": 32.782492,
    "lng": -117.006626,
    "source": "soltamedical"
  },
  {
    "name": "San Diego Cryotherapy",
    "device": "JUKA Cryosauna",
    "address": "6350 Riverdale St, San Diego, CA 92120",
    "doctors": "",
    "phones": "(619) 277-2338",
    "emails": "",
    "websites": "",
    "lat": 32.789439,
    "lng": -117.10001,
    "source": "cryomachines"
  },
  {
    "name": "San Diego Cryotherapy",
    "device": "METRUM Cryo-T Elephant",
    "address": "6350 Riverdale St, San Diego, CA 92120",
    "doctors": "",
    "phones": "(619) 277-2338",
    "emails": "",
    "websites": "",
    "lat": 32.789439,
    "lng": -117.10001,
    "source": "cryomachines"
  },
  {
    "name": "University Dermatology Group - Walter Nahm, M.D.",
    "device": "BBL",
    "address": "7695 Cardinal Court, Suite 200, San Diego, CA, 92123",
    "doctors": "",
    "phones": "",
    "emails": "",
    "websites": "www.drwalternahm.com/",
    "lat": 32.79138,
    "lng": -117.158225,
    "source": "sciton"
  },
  {
    "name": "University Dermatology Group - Walter Nahm, M.D.",
    "device": "Contour TRL",
    "address": "7695 Cardinal Court, Suite 200, San Diego, CA, 92123",
    "doctors": "",
    "phones": "",
    "emails": "",
    "websites": "www.drwalternahm.com/",
    "lat": 32.79138,
    "lng": -117.158225,
    "source": "sciton"
  },
  {
    "name": "University Dermatology Group - Walter Nahm, M.D.",
    "device": "ProFractional",
    "address": "7695 Cardinal Court, Suite 200, San Diego, CA, 92123",
    "doctors": "",
    "phones": "",
    "emails": "",
    "websites": "www.drwalternahm.com/",
    "lat": 32.79138,
    "lng": -117.158225,
    "source": "sciton"
  },
  {
    "name": "Walter Nahm MD",
    "device": "Thermage NXT",
    "address": "7695 Cardinal Ct Ste 200, San Diego, CA, 92123",
    "doctors": "Walter Nahm MD",
    "phones": "858-298-8835",
    "emails": "",
    "websites": "http://www.drwalternahm.com",
    "lat": 32.79138,
    "lng": -117.158225,
    "source": "soltamedical"
  },
  {
    "name": "Medical Rejuvenation Institute - Liam Briones M.D.",
    "device": "BBL",
    "address": "6530 Reflection Dr, San Diego, CA, 92124",
    "doctors": "",
    "phones": "",
    "emails": "",
    "websites": "",
    "lat": 32.791849,
    "lng": -117.108229,
    "source": "sciton"
  },
  {
    "name": "Medical Rejuvenation Institute - Liam Briones M.D.",
    "device": "ClearScan YAG",
    "address": "6530 Reflection Dr, San Diego, CA, 92124",
    "doctors": "",
    "phones": "",
    "emails": "",
    "websites": "",
    "lat": 32.791849,
    "lng": -117.108229,
    "source": "sciton"
  },
  {
    "name": "Medical Rejuvenation Institute - Liam Briones M.D.",
    "device": "Contour TRL",
    "address": "6530 Reflection Dr, San Diego, CA, 92124",
    "doctors": "",
    "phones": "",
    "emails": "",
    "websites": "",
    "lat": 32.791849,
    "lng": -117.108229,
    "source": "sciton"
  },
  {
    "name": "Medical Rejuvenation Institute - Liam Briones M.D.",
    "device": "ProFractional",
    "address": "6530 Reflection Dr, San Diego, CA, 92124",
    "doctors": "",
    "phones": "",
    "emails": "",
    "websites": "",
    "lat": 32.791849,
    "lng": -117.108229,
    "source": "sciton"
  },
  {
    "name": "Medical Rejuvenation Institute - Liam Briones M.D.",
    "device": "ProFractional-XC",
    "address": "6530 Reflection Dr, San Diego, CA, 92124",
    "doctors": "",
    "phones": "",
    "emails": "",
    "websites": "",
    "lat": 32.791849,
    "lng": -117.108229,
    "source": "sciton"
  },
  {
    "name": "Medical Rejuvenation Institute - Liam Briones M.D.",
    "device": "SkinTyte",
    "address": "6530 Reflection Dr, San Diego, CA, 92124",
    "doctors": "",
    "phones": "",
    "emails": "",
    "websites": "",
    "lat": 32.791849,
    "lng": -117.108229,
    "source": "sciton"
  },
  {
    "name": "Inspire Wellness",
    "device": "LightSheer DESIRE",
    "address": "10330 Friars Rd, Ste 119, San Diego, CA, 00000",
    "doctors": "Habib Dalhoumi",
    "phones": "619-202-7676",
    "emails": "jen@inspiresd.com",
    "websites": "http://inspiresd.com/",
    "lat": 32.792235,
    "lng": -117.100093,
    "source": "lumenis"
  },
  {
    "name": "Stein Dermatology",
    "device": "Kybella",
    "address": "6280 JACKSON DR STE 8 , SAN DIEGO, CA 92119",
    "doctors": "",
    "phones": "",
    "emails": "",
    "websites": "http://https//www.steindermatology.com/",
    "lat": 32.792397,
    "lng": -117.01849,
    "source": "mykybella"
  },
  {
    "name": "Visage Aesthetic Center",
    "device": "CoolSculpting",
    "address": "1671 W. Main St. , Ste A, El Centro, CA, 92243",
    "doctors": "Dr. Seung Gwon",
    "phones": "1(760) 352-3366",
    "emails": "info@fabulouslegs.com",
    "websites": "http://www.fabulouslegs.com/",
    "lat": 32.792406,
    "lng": -115.573204,
    "source": "coolsculpting"
  },
  {
    "name": "Vein Clinic of Imperial Valley",
    "device": "CoolSculpting",
    "address": "1671 W. Main St., Suite A, El Centro, CA, 92243",
    "doctors": "Dr. Seung Gwon",
    "phones": "1(760) 352-3366",
    "emails": "info@fabulouslegs.com",
    "websites": "http://fabulouslegs.com/coolsculpting-faq/",
    "lat": 32.792406,
    "lng": -115.573204,
    "source": "coolsculpting"
  },
  {
    "name": "Jennings Ryan Staley MD",
    "device": "Kybella",
    "address": "422 E MAIN ST , EL CAJON, CA 92020",
    "doctors": "",
    "phones": "",
    "emails": "",
    "websites": "",
    "lat": 32.79519,
    "lng": -116.956617,
    "source": "mykybella"
  },
  {
    "name": "E Med Spa",
    "device": "Venus Versa",
    "address": "422 East Main Street, El Cajon California 92020, United States",
    "doctors": "",
    "phones": "619-631-7500",
    "emails": "",
    "websites": "http://emedspasd.com/",
    "lat": 32.79519,
    "lng": -116.956617,
    "source": "venustreatment"
  },
  {
    "name": "Chill N Out Cryotherapy",
    "device": "JUKA Cryosauna",
    "address": "940 Garnet Ave San Diego CA 92109",
    "doctors": "",
    "phones": "(619) 550-1696",
    "emails": "",
    "websites": "",
    "lat": 32.797379,
    "lng": -117.252846,
    "source": "cryomachines"
  },
  {
    "name": "The Ageless MedSpa",
    "device": "ClearLift",
    "address": "1707 Grand Ave San Diego, CA 92109 United States",
    "doctors": "",
    "phones": "858-247-5317",
    "emails": "",
    "websites": "",
    "lat": 32.797967,
    "lng": -117.238099,
    "source": "almalasers"
  },
  {
    "name": "SD Botox Grand Ave",
    "device": "CoolSculpting",
    "address": "1707 Grand Avenue, San Diego, CA, 92109",
    "doctors": "Alex Roher, MD",
    "phones": "1(844) 732-6869",
    "emails": "sdbotoxhillcrest@gmail.com",
    "websites": "https://sdbotox.com/services/coolsculpting/",
    "lat": 32.797967,
    "lng": -117.238099,
    "source": "coolsculpting"
  },
  {
    "name": "Niloufer S. Dennis MD",
    "device": "MonaLisa Touch",
    "address": "7930 Frost St., Ste. 103, San Diego, CA, 92123",
    "doctors": "Niloufer S Dennis, MD",
    "phones": "(800) 395-9431",
    "emails": "",
    "websites": "",
    "lat": 32.800845,
    "lng": -117.15329,
    "source": "cynosure"
  },
  {
    "name": "Facial beauty by MD",
    "device": "Venus Legacy",
    "address": "1240 Broadway, Suite 201, El Cajon CA 92021, United States",
    "doctors": "",
    "phones": "(619) 588-9355",
    "emails": "",
    "websites": "http://facialbeautybymd.com/",
    "lat": 32.808414,
    "lng": -116.938465,
    "source": "venustreatment"
  },
  {
    "name": "Jennings Staley MD",
    "device": "Kybella",
    "address": "3737 MORAGA AVE STE B214 , SAN DIEGO, CA 92117",
    "doctors": "",
    "phones": "",
    "emails": "",
    "websites": "http://www.skinnybeach.com/",
    "lat": 32.809258,
    "lng": -117.210677,
    "source": "mykybella"
  },
  {
    "name": "Perlman Clinic",
    "device": "ClearLift",
    "address": "3737 Moraga Ave, Suite B-103 San Diego, CA 92117 United States",
    "doctors": "",
    "phones": "858-554-1212",
    "emails": "",
    "websites": "",
    "lat": 32.809258,
    "lng": -117.210677,
    "source": "almalasers"
  },
  {
    "name": "Skinny Beach",
    "device": "Quanta Aestetic Lasers",
    "address": "3737 Moraga Ave., Suite B-14, San Diego, CA, 92117",
    "doctors": "",
    "phones": "(858) 247-3847",
    "emails": "",
    "websites": "http://skinnybeach.com/",
    "lat": 32.809258,
    "lng": -117.210677,
    "source": "quantausa"
  },
  {
    "name": "The Cosmetic Spa",
    "device": "Xeo",
    "address": "6820 Lanewood Ct., San Diego, CA 92111 - USA",
    "doctors": "",
    "phones": "(405) 733-1700",
    "emails": "",
    "websites": "",
    "lat": 32.8104,
    "lng": -117.170935,
    "source": "cutera"
  },
  {
    "name": "Coastal Medical Aesthetics, Raymond Y Chan MD INC",
    "device": "Kybella",
    "address": "4619 CONVOY ST STE G , SAN DIEGO, CA 92111",
    "doctors": "",
    "phones": "",
    "emails": "",
    "websites": "",
    "lat": 32.824505,
    "lng": -117.154908,
    "source": "mykybella"
  },
  {
    "name": "Synerchi",
    "device": "Kybella",
    "address": "4839 CLAIREMONT DR STE A , SAN DIEGO, CA 92117",
    "doctors": "",
    "phones": "",
    "emails": "synerchispa@aol.com",
    "websites": "http://www.synerchispa.com/",
    "lat": 32.831835,
    "lng": -117.204544,
    "source": "mykybella"
  },
  {
    "name": "Stephen M Krant MD",
    "device": "Kybella",
    "address": "528 NAUTILUS , LA JOLLA, CA 92037",
    "doctors": "",
    "phones": "",
    "emails": "",
    "websites": "",
    "lat": 32.832191,
    "lng": -117.276016,
    "source": "mykybella"
  },
  {
    "name": "SK Clinic",
    "device": "LightSheer DUET",
    "address": "528 Nautilus St, La Jolla, CA, 92037",
    "doctors": "Dr. Stephen Krant",
    "phones": "858-454-3161",
    "emails": "kimberly@sk-clinic.com",
    "websites": "www.sk-clinic.com",
    "lat": 32.832191,
    "lng": -117.276016,
    "source": "lumenis"
  },
  {
    "name": "SK Clinic",
    "device": "M22",
    "address": "528 Nautilus St, La Jolla, CA, 92037",
    "doctors": "Dr. Stephen Krant",
    "phones": "858-454-3161",
    "emails": "kimberly@sk-clinic.com",
    "websites": "www.sk-clinic.com",
    "lat": 32.832191,
    "lng": -117.276016,
    "source": "lumenis"
  },
  {
    "name": "SK Clinic",
    "device": "Thermage CPT",
    "address": "528 Nautilus St, La Jolla, CA, 92037",
    "doctors": "John Apostolides MD",
    "phones": "858-454-3161",
    "emails": "",
    "websites": "http://www.sk-clinic.com",
    "lat": 32.832191,
    "lng": -117.276016,
    "source": "soltamedical"
  },
  {
    "name": "SK Clinic",
    "device": "Thermage NXT",
    "address": "528 Nautilus St, La Jolla, CA, 92037",
    "doctors": "John Apostolides MD",
    "phones": "858-454-3161",
    "emails": "",
    "websites": "http://www.sk-clinic.com",
    "lat": 32.832191,
    "lng": -117.276016,
    "source": "soltamedical"
  },
  {
    "name": "SK Clinic - Plastic & Reconstructive Surgery",
    "device": "Fraxel 1550",
    "address": "528 Nautilus St, La Jolla, CA, 92037",
    "doctors": "Stephen M Krant MD; F.A.C.S.",
    "phones": "858-454-3161",
    "emails": "",
    "websites": "http://www.sk-clinic.com",
    "lat": 32.832191,
    "lng": -117.276016,
    "source": "soltamedical"
  },
  {
    "name": "SK Clinic - Plastic & Reconstructive Surgery",
    "device": "Fraxel re:pair",
    "address": "528 Nautilus St, La Jolla, CA, 92037",
    "doctors": "Stephen M Krant MD; F.A.C.S.",
    "phones": "858-454-3161",
    "emails": "",
    "websites": "http://www.sk-clinic.com",
    "lat": 32.832191,
    "lng": -117.276016,
    "source": "soltamedical"
  },
  {
    "name": "RN Specialist Corp",
    "device": "Icon",
    "address": "7372 Mission Dam Terrace #186, Santee, CA, 92071",
    "doctors": "Kyndra McKinney; Tim Rhodes",
    "phones": 8589457058,
    "emails": "",
    "websites": "",
    "lat": 32.834126,
    "lng": -117.037484,
    "source": "cynosure"
  },
  {
    "name": "La Jolla Dermatology & Laser Surgery Center",
    "device": "Kybella",
    "address": "7301 GIRARD AVE STE 202 , LA JOLLA, CA 92037",
    "doctors": "",
    "phones": "",
    "emails": "info@lajollalaserderm.com",
    "websites": "http://www.lajollalaserderm.com/",
    "lat": 32.837714,
    "lng": -117.27124,
    "source": "mykybella"
  },
  {
    "name": "Kayou Clinic/EC Medical Group",
    "device": "Xeo",
    "address": "10159 Mission Gorge Rd, Santee, CA 92071 - USA",
    "doctors": "",
    "phones": "(619) 447-1502",
    "emails": "",
    "websites": "http://www.kayouclinic.com/",
    "lat": 32.838227,
    "lng": -116.976067,
    "source": "cutera"
  },
  {
    "name": "The Secret",
    "device": "Neocutis",
    "address": "7634 Girard Ave,La Jolla, ca, 92037",
    "doctors": "Peter Mann, MD,",
    "phones": "858-41-2-3353",
    "emails": "",
    "websites": "",
    "lat": 32.842655,
    "lng": -117.273515,
    "source": "ultherapy"
  },
  {
    "name": "The Secret",
    "device": "Ultherapy",
    "address": "7634 Girard Ave,La Jolla, ca, 92037",
    "doctors": "Peter Mann, MD,",
    "phones": "858-41-2-3353",
    "emails": "",
    "websites": "",
    "lat": 32.842655,
    "lng": -117.273515,
    "source": "ultherapy"
  },
  {
    "name": "La Jolla Cosmetic Laser Clinic",
    "device": "Fraxel DUAL 1550/1927",
    "address": "1111 Torrey Pines Rd Ste 102, La Jolla, CA, 92037",
    "doctors": "Nasrin Mani MD; Jasmine McLeod MD",
    "phones": "858-454-2700",
    "emails": "",
    "websites": "http://www.lajollalaser.com",
    "lat": 32.842984,
    "lng": -117.271447,
    "source": "soltamedical"
  },
  {
    "name": "La Jolla Cosmetic Laser Clinic",
    "device": "Fraxel re:pair",
    "address": "1111 Torrey Pines Rd Ste 102, La Jolla, CA, 92037",
    "doctors": "Nasrin Mani MD; Jasmine McLeod MD",
    "phones": "858-454-2700",
    "emails": "",
    "websites": "http://www.lajollalaser.com",
    "lat": 32.842984,
    "lng": -117.271447,
    "source": "soltamedical"
  },
  {
    "name": "La Jolla Cosmetic Laser Clinic",
    "device": "Isolaz",
    "address": "1111 Torrey Pines Rd Ste 102, La Jolla, CA, 92037",
    "doctors": "Nasrin Mani MD; Jasmine McLeod MD",
    "phones": "858-454-2700",
    "emails": "",
    "websites": "http://www.lajollalaser.com",
    "lat": 32.842984,
    "lng": -117.271447,
    "source": "soltamedical"
  },
  {
    "name": "La Jolla Cosmetic Laser Clinic",
    "device": "Thermage CPT",
    "address": "1111 Torrey Pines Rd Ste 102, La Jolla, CA, 92037",
    "doctors": "Nasrin Mani MD; Jasmine McLeod MD",
    "phones": "858-454-2700",
    "emails": "",
    "websites": "http://www.lajollalaser.com",
    "lat": 32.842984,
    "lng": -117.271447,
    "source": "soltamedical"
  },
  {
    "name": "La Jolla Cosmetic Laser Clinic",
    "device": "Thermage NXT",
    "address": "1111 Torrey Pines Rd Ste 102, La Jolla, CA, 92037",
    "doctors": "Nasrin Mani MD; Jasmine McLeod MD",
    "phones": "858-454-2700",
    "emails": "",
    "websites": "http://www.lajollalaser.com",
    "lat": 32.842984,
    "lng": -117.271447,
    "source": "soltamedical"
  },
  {
    "name": "Riverview MD Spa Medical Group",
    "device": "Xeo",
    "address": "280 Riverview Pkwy SUITE: 602, Santee, CA 92071 - USA",
    "doctors": "",
    "phones": "(619) 456-4555",
    "emails": "",
    "websites": "http://www.riverviewmd.com/",
    "lat": 32.843427,
    "lng": -116.978022,
    "source": "cutera"
  },
  {
    "name": "La Jolla Cosmetic Laser Clinic (Nasrin Mani MD)",
    "device": "Kybella",
    "address": "7720 FAY AVE , LA JOLLA, CA 92037",
    "doctors": "",
    "phones": "",
    "emails": "drmani@lajollalaser.com",
    "websites": "http://www.lajollalaser.com/",
    "lat": 32.843735,
    "lng": -117.275098,
    "source": "mykybella"
  },
  {
    "name": "La Jolla Cosmetic Laser Clinic",
    "device": "AcuPulse",
    "address": "7720 Fay Avenue, La Jolla, CA, 92037",
    "doctors": "Dr. Nasrin Mani",
    "phones": "858.454.2700",
    "emails": "wendy@lajollalaser.com",
    "websites": "www.LaJollaLaser.com",
    "lat": 32.843735,
    "lng": -117.275098,
    "source": "lumenis"
  },
  {
    "name": "La Jolla Cosmetic Laser Clinic",
    "device": "AcuPulse",
    "address": "7720 Fay Avenue, La Jolla, CA, 92037",
    "doctors": "Dr. Darush Mohyi",
    "phones": "858.454.2700",
    "emails": "wendy@lajollalaser.com",
    "websites": "www.LaJollaLaser.com",
    "lat": 32.843735,
    "lng": -117.275098,
    "source": "lumenis"
  },
  {
    "name": "La Jolla Cosmetic Laser Clinic",
    "device": "AcuPulse",
    "address": "7720 Fay Avenue, La Jolla, CA, 92037",
    "doctors": "Nasrin Mani, M.D.",
    "phones": "858 454 2700",
    "emails": "info@lajollalaser.com",
    "websites": "lajollalaser.com",
    "lat": 32.843735,
    "lng": -117.275098,
    "source": "lumenis"
  },
  {
    "name": "La Jolla Cosmetic Laser Clinic",
    "device": "CoolSculpting",
    "address": "7720 Fay Avenue, La Jolla, CA, 92037",
    "doctors": "Nasrin Mani, MD & Jasmine McLeod, MD",
    "phones": "1858-454-2700",
    "emails": "drmani@lajollalaser.com",
    "websites": "http://www.lajollalaser.com/body-contouring",
    "lat": 32.843735,
    "lng": -117.275098,
    "source": "coolsculpting"
  },
  {
    "name": "La Jolla Cosmetic Laser Clinic",
    "device": "LightSheer DUET",
    "address": "7720 Fay Avenue, La Jolla, CA, 92037",
    "doctors": "Nasrin Mani, M.D.",
    "phones": "858 454 2700",
    "emails": "info@lajollalaser.com",
    "websites": "lajollalaser.com",
    "lat": 32.843735,
    "lng": -117.275098,
    "source": "lumenis"
  },
  {
    "name": "La Jolla Cosmetic Laser Clinic",
    "device": "LightSheer DUET",
    "address": "7720 Fay Avenue, La Jolla, CA, 92037",
    "doctors": "Dr. Nasrin Mani Dr. Darush Mohyi Shanan Valli PA Jonnie Javidan RN Tammy Harrington RN",
    "phones": 8584542700,
    "emails": "mariela@lajollalaser.com",
    "websites": "http://www.lajollalaser.com/",
    "lat": 32.843735,
    "lng": -117.275098,
    "source": "lumenis"
  },
  {
    "name": "La Jolla Cosmetic Laser Clinic",
    "device": "LightSheer DUET",
    "address": "7720 Fay Avenue, La Jolla, CA, 92037",
    "doctors": "Dr. Nasrin Mani",
    "phones": "858.454.2700",
    "emails": "wendy@lajollalaser.com",
    "websites": "www.LaJollaLaser.com",
    "lat": 32.843735,
    "lng": -117.275098,
    "source": "lumenis"
  },
  {
    "name": "La Jolla Cosmetic Laser Clinic",
    "device": "M22",
    "address": "7720 Fay Avenue, La Jolla, CA, 92037",
    "doctors": "Nasrin Mani, M.D.",
    "phones": "858 454 2700",
    "emails": "info@lajollalaser.com",
    "websites": "lajollalaser.com",
    "lat": 32.843735,
    "lng": -117.275098,
    "source": "lumenis"
  },
  {
    "name": "La Jolla Cosmetic Laser Clinic",
    "device": "ResurFX",
    "address": "7720 Fay Avenue, La Jolla, CA, 92037",
    "doctors": "Dr. Nasrin Mani Dr. Darush Mohyi Shanan Valli PA Jonnie Javidan RN Tammy Harrington RN",
    "phones": 8584542700,
    "emails": "mariela@lajollalaser.com",
    "websites": "http://www.lajollalaser.com/",
    "lat": 32.843735,
    "lng": -117.275098,
    "source": "lumenis"
  },
  {
    "name": "La Jolla Cosmetic Laser Clinic",
    "device": "ResurFX",
    "address": "7720 Fay Avenue, La Jolla, CA, 92037",
    "doctors": "Nasrin Mani, M.D.",
    "phones": "858 454 2700",
    "emails": "info@lajollalaser.com",
    "websites": "lajollalaser.com",
    "lat": 32.843735,
    "lng": -117.275098,
    "source": "lumenis"
  },
  {
    "name": "La Jolla Cosmetic Laser Clinic",
    "device": "UltraPulse",
    "address": "7720 Fay Avenue, La Jolla, CA, 92037",
    "doctors": "Nasrin Mani, M.D.",
    "phones": "858 454 2700",
    "emails": "info@lajollalaser.com",
    "websites": "lajollalaser.com",
    "lat": 32.843735,
    "lng": -117.275098,
    "source": "lumenis"
  },
  {
    "name": "La Jolla Cosmetic Laser Clinic",
    "device": "UltraPulse",
    "address": "7720 Fay Avenue, La Jolla, CA, 92037",
    "doctors": "Dr. Nasrin Mani",
    "phones": "858.454.2700",
    "emails": "wendy@lajollalaser.com",
    "websites": "www.LaJollaLaser.com",
    "lat": 32.843735,
    "lng": -117.275098,
    "source": "lumenis"
  },
  {
    "name": "Nasrin Mani MD",
    "device": "LightSheer DUET",
    "address": "7720 Faye Ave, La Jolla, CA, 92037",
    "doctors": "",
    "phones": "858-454-2700",
    "emails": "",
    "websites": "https://www.lajollalaser.com/",
    "lat": 32.843735,
    "lng": -117.275098,
    "source": "lumenis"
  },
  {
    "name": "Nasrin Mani MD",
    "device": "M22",
    "address": "7720 Faye Ave, La Jolla, CA, 92037",
    "doctors": "",
    "phones": "858-454-2700",
    "emails": "",
    "websites": "https://www.lajollalaser.com/",
    "lat": 32.843735,
    "lng": -117.275098,
    "source": "lumenis"
  },
  {
    "name": "True Beauty, San Diego Aesthetic Surgery",
    "device": "LightSheer DUET",
    "address": "7746 Herschel Avenue, La Jolla, CA, 92037",
    "doctors": "Brian J. Reagan, MD Stephanie Tomicich, MSN, BSN, NP-C",
    "phones": 8584547546,
    "emails": "info@truebeautysd.com",
    "websites": "info@truebeautysd.com",
    "lat": 32.844779,
    "lng": -117.272824,
    "source": "lumenis"
  },
  {
    "name": "Robert Gramins DDS",
    "device": "Kybella",
    "address": "7855 FAY AVE STE 240 , LA JOLLA, CA 92037",
    "doctors": "",
    "phones": "",
    "emails": "",
    "websites": "",
    "lat": 32.845863,
    "lng": -117.275235,
    "source": "mykybella"
  },
  {
    "name": "The Fountain of Cryouth",
    "device": "METRUM Cryo-T Elephant",
    "address": "909 Prospect St. Ste 290B, La Jolla, CA 92037",
    "doctors": "",
    "phones": "(619) 807-8425",
    "emails": "",
    "websites": "",
    "lat": 32.846137,
    "lng": -117.275281,
    "source": "cryomachines"
  },
  {
    "name": "Internal Medicine & Allergy",
    "device": "Xeo",
    "address": "850 Prospect St. STE 2, La Jolla, CA 92037 - USA",
    "doctors": "",
    "phones": "(858) 731-7601",
    "emails": "",
    "websites": "http://www.atlantawellnessandaesthetics.com/",
    "lat": 32.846238,
    "lng": -117.276498,
    "source": "cutera"
  },
  {
    "name": "Belladerma Cosmetic Surgery & Skincare Center",
    "device": "CoolSculpting",
    "address": "3655 Nobel Dr, Ste 100, San Diego, CA, 92122",
    "doctors": "C. Dennis Bucko, MD",
    "phones": "1858-453-8484",
    "emails": "info@drbucko.com",
    "websites": "http://fatfreezesandiego.com/",
    "lat": 32.86781,
    "lng": -117.228432,
    "source": "coolsculpting"
  },
  {
    "name": "LaserAway La Jolla  UTC",
    "device": "CoolSculpting",
    "address": "8935 Towne Center Dr, San Diego, CA, 92122",
    "doctors": "Julie Doyle, MD.",
    "phones": "1(858) 452-2929",
    "emails": "contact@laseraway.net",
    "websites": "https://www.laseraway.com/services/coolsculpting/#sm.001cd0mbp157ydxpq291yp920roy7",
    "lat": 32.867813,
    "lng": -117.206224,
    "source": "coolsculpting"
  },
  {
    "name": "UC San Diego, Department of Dermatology",
    "device": "CoolSculpting",
    "address": "8899 University Center Lane , Suite # 350, San Diego, CA, 92093",
    "doctors": "Arisa Ortiz, MD, FAAD",
    "phones": "1(858) 657-8322",
    "emails": "mwaters@ucsd.edu",
    "websites": "http://www.dermatology.ucsd.edu/pages/default.aspx",
    "lat": 32.869634,
    "lng": -117.227605,
    "source": "coolsculpting"
  },
  {
    "name": "UCSD Dermatology",
    "device": "BBL",
    "address": "8899 University Center Lane #350, San Diego, CA, 92122",
    "doctors": "",
    "phones": "",
    "emails": "",
    "websites": "https://providers.ucsd.edu/details/22438",
    "lat": 32.869634,
    "lng": -117.227605,
    "source": "sciton"
  },
  {
    "name": "UCSD Dermatology",
    "device": "ClearScan YAG",
    "address": "8899 University Center Lane #350, San Diego, CA, 92122",
    "doctors": "",
    "phones": "",
    "emails": "",
    "websites": "https://providers.ucsd.edu/details/22438",
    "lat": 32.869634,
    "lng": -117.227605,
    "source": "sciton"
  },
  {
    "name": "UCSD Dermatology",
    "device": "Contour TRL",
    "address": "8899 University Center Lane #350, San Diego, CA, 92122",
    "doctors": "",
    "phones": "",
    "emails": "",
    "websites": "https://providers.ucsd.edu/details/22438",
    "lat": 32.869634,
    "lng": -117.227605,
    "source": "sciton"
  },
  {
    "name": "UCSD Dermatology",
    "device": "ProFractional",
    "address": "8899 University Center Lane #350, San Diego, CA, 92122",
    "doctors": "",
    "phones": "",
    "emails": "",
    "websites": "https://providers.ucsd.edu/details/22438",
    "lat": 32.869634,
    "lng": -117.227605,
    "source": "sciton"
  },
  {
    "name": "UCSD Dermatology",
    "device": "ProFractional-III",
    "address": "8899 University Center Lane #350, San Diego, CA, 92122",
    "doctors": "",
    "phones": "",
    "emails": "",
    "websites": "https://providers.ucsd.edu/details/22438",
    "lat": 32.869634,
    "lng": -117.227605,
    "source": "sciton"
  },
  {
    "name": "UCSD Dermatology",
    "device": "SkinTyte",
    "address": "8899 University Center Lane #350, San Diego, CA, 92122",
    "doctors": "",
    "phones": "",
    "emails": "",
    "websites": "https://providers.ucsd.edu/details/22438",
    "lat": 32.869634,
    "lng": -117.227605,
    "source": "sciton"
  },
  {
    "name": "Douglas M Keel DO Inc",
    "device": "M22",
    "address": "8899 University Center Lane Ste 150, San Diego, CA, 92122",
    "doctors": "",
    "phones": "858-535-1400",
    "emails": "",
    "websites": "http://pacificdermatologycenter.com/",
    "lat": 32.869634,
    "lng": -117.227605,
    "source": "lumenis"
  },
  {
    "name": "Pacific Dermatology & Cosmetic Laser Cen",
    "device": "M22",
    "address": "8899 University Center Lane, San Diego, CA, 92122",
    "doctors": "Pacific Dermatology & Cosmetic Laser Cen",
    "phones": "(858)-535-1400",
    "emails": "heather@pacificdermatologycenter.com",
    "websites": "www.pacificdermatologycenter.com",
    "lat": 32.869634,
    "lng": -117.227605,
    "source": "lumenis"
  },
  {
    "name": "UCSD Department of Dermatology",
    "device": "Excel V",
    "address": "8899 University Center Ln #350, San Diego, CA 92122 - USA",
    "doctors": "",
    "phones": "(619) 294-3746",
    "emails": "",
    "websites": "http://dermatology.ucsd.edu/Pages/default.aspx",
    "lat": 32.869634,
    "lng": -117.227605,
    "source": "cutera"
  },
  {
    "name": "Restore SD Plastic Surgery",
    "device": "Kybella",
    "address": "8899 UNIVERSITY CENTER LN STE 200 , SAN DIEGO, CA 92122",
    "doctors": "",
    "phones": "",
    "emails": "info@restoresdplasticsurgery.com",
    "websites": "http://www.restoresdplasticsurgery.com/",
    "lat": 32.869634,
    "lng": -117.227605,
    "source": "mykybella"
  },
  {
    "name": "Perlman Ambu Care Cntr",
    "device": "Kybella",
    "address": "8899 UNIVERSITY CENTER LN STE 350 , SAN DIEGO, CA 92122",
    "doctors": "",
    "phones": "",
    "emails": "",
    "websites": "",
    "lat": 32.869634,
    "lng": -117.227605,
    "source": "mykybella"
  },
  {
    "name": "UCSD Health Systems Dermatology",
    "device": "Clear + Brilliant Permea",
    "address": "8899 University Center Ln Ste 350, San Diego, CA, 92122",
    "doctors": "Arisa Ortiz MD",
    "phones": "",
    "emails": "",
    "websites": "",
    "lat": 32.869634,
    "lng": -117.227605,
    "source": "soltamedical"
  },
  {
    "name": "Douglas M Keel DO",
    "device": "Kybella",
    "address": "8899 UNIVERSITY CTR LN #150 , SAN DIEGO, CA 92122",
    "doctors": "",
    "phones": "",
    "emails": "",
    "websites": "",
    "lat": 32.869634,
    "lng": -117.227605,
    "source": "mykybella"
  },